$GPRMC,163057.000,A,3402.6917,N,11829.7062,W,0.00,32.05,200516,,,A*42
$GPRMC,163058.000,A,3402.6908,N,11829.7066,W,0.21,32.05,200516,,,A*44
$GPRMC,163059.000,A,3402.6900,N,11829.7069,W,0.28,32.05,200516,,,A*4B
$GPRMC,163100.000,A,3402.6896,N,11829.7071,W,0.24,32.05,200516,,,A*4D
$GPRMC,163101.000,A,3402.6894,N,11829.7074,W,0.01,32.05,200516,,,A*4C
$GPRMC,163102.000,A,3402.6892,N,11829.7075,W,0.00,32.05,200516,,,A*49
$GPRMC,163103.000,A,3402.6890,N,11829.7077,W,0.00,32.05,200516,,,A*48
$GPRMC,163104.000,A,3402.6889,N,11829.7078,W,0.00,32.05,200516,,,A*48
$GPRMC,163105.000,A,3402.6888,N,11829.7079,W,0.00,32.05,200516,,,A*49
$GPRMC,163106.000,A,3402.6887,N,11829.7079,W,0.00,32.05,200516,,,A*45
$GPRMC,163107.000,A,3402.6887,N,11829.7079,W,0.00,32.05,200516,,,A*44
$GPRMC,163108.000,A,3402.6887,N,11829.7079,W,0.00,32.05,200516,,,A*4B
$GPRMC,163109.000,A,3402.6887,N,11829.7079,W,0.00,32.05,200516,,,A*4A
$GPRMC,163110.000,A,3402.6885,N,11829.7077,W,0.37,32.05,200516,,,A*4A
$GPRMC,163111.000,A,3402.6883,N,11829.7075,W,0.26,32.05,200516,,,A*4F
$GPRMC,163112.000,A,3402.6881,N,11829.7072,W,0.27,32.05,200516,,,A*48
$GPRMC,163113.000,A,3402.6882,N,11829.7072,W,0.00,32.05,200516,,,A*4F
$GPRMC,163114.000,A,3402.6881,N,11829.7073,W,0.00,32.05,200516,,,A*4A
$GPRMC,163115.000,A,3402.6880,N,11829.7073,W,0.00,32.05,200516,,,A*4A
$GPRMC,163116.000,A,3402.6880,N,11829.7073,W,0.00,32.05,200516,,,A*49
$GPRMC,163117.000,A,3402.6879,N,11829.7074,W,0.00,32.05,200516,,,A*49
$GPRMC,163118.000,A,3402.6877,N,11829.7068,W,0.18,32.05,200516,,,A*4C
$GPRMC,163119.000,A,3402.6877,N,11829.7069,W,0.00,32.05,200516,,,A*45
$GPRMC,163120.000,A,3402.6877,N,11829.7069,W,0.00,32.05,200516,,,A*4F
$GPRMC,163121.000,A,3402.6877,N,11829.7069,W,0.00,32.05,200516,,,A*4E
$GPRMC,163122.000,A,3402.6877,N,11829.7069,W,0.00,32.05,200516,,,A*4D
$GPRMC,163123.000,A,3402.6877,N,11829.7069,W,0.00,32.05,200516,,,A*4C
$GPRMC,163124.000,A,3402.6875,N,11829.7068,W,0.13,32.05,200516,,,A*4A
$GPRMC,163125.000,A,3402.6875,N,11829.7067,W,0.18,32.05,200516,,,A*4F
$GPRMC,163126.000,A,3402.6874,N,11829.7065,W,0.14,32.05,200516,,,A*43
$GPRMC,163200.000,A,3402.6848,N,11829.7060,W,0.00,32.05,200516,,,A*4B
$GPRMC,163201.000,A,3402.6848,N,11829.7060,W,0.00,32.05,200516,,,A*4A
$GPRMC,163355.000,A,3402.6803,N,11829.7040,W,0.47,32.05,200516,,,A*44
$GPRMC,163356.000,A,3402.6802,N,11829.7038,W,0.31,32.05,200516,,,A*48
$GPRMC,163357.000,A,3402.6803,N,11829.7036,W,0.12,32.05,200516,,,A*47
$GPRMC,163358.000,A,3402.6804,N,11829.7033,W,0.22,32.05,200516,,,A*49
$GPRMC,163359.000,A,3402.6804,N,11829.7030,W,0.20,32.05,200516,,,A*49
$GPRMC,163400.000,A,3402.6804,N,11829.7031,W,0.00,32.05,200516,,,A*41
$GPRMC,163401.000,A,3402.6804,N,11829.7031,W,0.00,32.05,200516,,,A*40
$GPRMC,163402.000,A,3402.6804,N,11829.7031,W,0.00,32.05,200516,,,A*43
$GPRMC,163403.000,A,3402.6804,N,11829.7031,W,0.00,32.05,200516,,,A*42
$GPRMC,163404.000,A,3402.6805,N,11829.7030,W,0.14,32.05,200516,,,A*40
$GPRMC,163405.000,A,3402.6805,N,11829.7029,W,0.31,32.05,200516,,,A*4E
$GPRMC,163406.000,A,3402.6806,N,11829.7029,W,0.00,32.05,200516,,,A*4C
$GPRMC,163407.000,A,3402.6806,N,11829.7029,W,0.00,32.05,200516,,,A*4D
$GPRMC,163408.000,A,3402.6806,N,11829.7029,W,0.00,32.05,200516,,,A*42
$GPRMC,163409.000,A,3402.6806,N,11829.7029,W,0.00,32.05,200516,,,A*43
$GPRMC,163410.000,A,3402.6806,N,11829.7029,W,0.00,32.05,200516,,,A*4B
$GPRMC,163411.000,A,3402.6806,N,11829.7029,W,0.00,32.05,200516,,,A*4A
$GPRMC,163412.000,A,3402.6806,N,11829.7029,W,0.00,32.05,200516,,,A*49
$GPRMC,163413.000,A,3402.6806,N,11829.7029,W,0.00,32.05,200516,,,A*48
$GPRMC,163414.000,A,3402.6806,N,11829.7029,W,0.00,32.05,200516,,,A*4F
$GPRMC,163415.000,A,3402.6806,N,11829.7029,W,0.00,32.05,200516,,,A*4E
$GPRMC,163416.000,A,3402.6806,N,11829.7029,W,0.00,32.05,200516,,,A*4D
$GPRMC,163417.000,A,3402.6806,N,11829.7029,W,0.00,32.05,200516,,,A*4C
$GPRMC,163418.000,A,3402.6806,N,11829.7029,W,0.00,32.05,200516,,,A*43
$GPRMC,163419.000,A,3402.6806,N,11829.7029,W,0.00,32.05,200516,,,A*42
$GPRMC,163420.000,A,3402.6806,N,11829.7029,W,0.00,32.05,200516,,,A*48
$GPRMC,163421.000,A,3402.6806,N,11829.7029,W,0.00,32.05,200516,,,A*49
$GPRMC,163422.000,A,3402.6806,N,11829.7029,W,0.00,32.05,200516,,,A*4A
$GPRMC,163423.000,A,3402.6806,N,11829.7029,W,0.00,32.05,200516,,,A*4B
$GPRMC,172050.000,A,3402.6782,N,11829.6946,W,0.00,187.96,200516,,,A*7C
$GPRMC,172051.000,A,3402.6782,N,11829.6946,W,0.00,187.96,200516,,,A*7D
$GPRMC,172052.000,A,3402.6782,N,11829.6946,W,0.00,187.96,200516,,,A*7E
$GPRMC,172053.000,A,3402.6782,N,11829.6946,W,0.00,187.96,200516,,,A*7F
$GPRMC,172054.000,A,3402.6782,N,11829.6946,W,0.00,187.96,200516,,,A*78
$GPRMC,172055.000,A,3402.6782,N,11829.6946,W,0.00,187.96,200516,,,A*79
$GPRMC,172056.000,A,3402.6782,N,11829.6946,W,0.00,187.96,200516,,,A*7A
$GPRMC,172057.000,A,3402.6782,N,11829.6946,W,0.00,187.96,200516,,,A*7B
$GPRMC,172058.000,A,3402.6782,N,11829.6946,W,0.00,187.96,200516,,,A*74
$GPRMC,172059.000,A,3402.6782,N,11829.6946,W,0.00,187.96,200516,,,A*75
$GPRMC,172100.000,A,3402.6782,N,11829.6946,W,0.19,187.96,200516,,,A*70
$GPRMC,172101.000,A,3402.6781,N,11829.6945,W,0.27,187.96,200516,,,A*7C
$GPRMC,172102.000,A,3402.6781,N,11829.6946,W,0.00,187.96,200516,,,A*79
$GPRMC,172103.000,A,3402.6781,N,11829.6946,W,0.00,187.96,200516,,,A*78
$GPRMC,172104.000,A,3402.6781,N,11829.6946,W,0.07,187.96,200516,,,A*78
$GPRMC,172105.000,A,3402.6781,N,11829.6946,W,0.13,187.96,200516,,,A*7C
$GPRMC,172106.000,A,3402.6781,N,11829.6946,W,0.00,187.96,200516,,,A*7D
$GPRMC,172107.000,A,3402.6781,N,11829.6946,W,0.00,187.96,200516,,,A*7C
$GPRMC,172108.000,A,3402.6781,N,11829.6946,W,0.00,187.96,200516,,,A*73
$GPRMC,172109.000,A,3402.6781,N,11829.6946,W,0.08,187.96,200516,,,A*7A
$GPRMC,172110.000,A,3402.6780,N,11829.6945,W,0.19,187.96,200516,,,A*70
$GPRMC,172111.000,A,3402.6780,N,11829.6944,W,0.15,187.96,200516,,,A*7C
$GPRMC,172112.000,A,3402.6780,N,11829.6944,W,0.00,187.96,200516,,,A*7B
$GPRMC,172113.000,A,3402.6780,N,11829.6944,W,0.00,187.96,200516,,,A*7A
$GPRMC,172114.000,A,3402.6780,N,11829.6944,W,0.00,187.96,200516,,,A*7D
$GPRMC,172115.000,A,3402.6779,N,11829.6944,W,0.19,187.96,200516,,,A*72
$GPRMC,172116.000,A,3402.6779,N,11829.6944,W,0.00,187.96,200516,,,A*79
$GPRMC,172117.000,A,3402.6779,N,11829.6944,W,0.00,187.96,200516,,,A*78
$GPRMC,172118.000,A,3402.6779,N,11829.6944,W,0.00,187.96,200516,,,A*77
$GPRMC,172119.000,A,3402.6779,N,11829.6944,W,0.00,187.96,200516,,,A*76
$GPRMC,172120.000,A,3402.6779,N,11829.6944,W,0.00,187.96,200516,,,A*7C
$GPRMC,172121.000,A,3402.6779,N,11829.6944,W,0.00,187.96,200516,,,A*7D
$GPRMC,172122.000,A,3402.6779,N,11829.6944,W,0.00,187.96,200516,,,A*7E
$GPRMC,172123.000,A,3402.6779,N,11829.6944,W,0.00,187.96,200516,,,A*7F
$GPRMC,172124.000,A,3402.6779,N,11829.6944,W,0.00,187.96,200516,,,A*78
$GPRMC,172125.000,A,3402.6779,N,11829.6944,W,0.14,187.96,200516,,,A*7C
$GPRMC,172126.000,A,3402.6779,N,11829.6944,W,0.00,187.96,200516,,,A*7A
$GPRMC,172127.000,A,3402.6779,N,11829.6944,W,0.00,187.96,200516,,,A*7B
$GPRMC,172128.000,A,3402.6779,N,11829.6944,W,0.00,187.96,200516,,,A*74
$GPRMC,172129.000,A,3402.6779,N,11829.6944,W,0.00,187.96,200516,,,A*75
$GPRMC,172130.000,A,3402.6779,N,11829.6944,W,0.00,187.96,200516,,,A*7D
$GPRMC,172131.000,A,3402.6779,N,11829.6944,W,0.00,187.96,200516,,,A*7C
$GPRMC,172132.000,A,3402.6779,N,11829.6944,W,0.00,187.96,200516,,,A*7F
$GPRMC,172133.000,A,3402.6779,N,11829.6944,W,0.00,187.96,200516,,,A*7E
$GPRMC,172134.000,A,3402.6779,N,11829.6943,W,0.00,187.96,200516,,,A*7E
$GPRMC,172135.000,A,3402.6779,N,11829.6943,W,0.00,187.96,200516,,,A*7F
$GPRMC,172136.000,A,3402.6779,N,11829.6943,W,0.00,187.96,200516,,,A*7C
$GPRMC,172137.000,A,3402.6779,N,11829.6943,W,0.00,187.96,200516,,,A*7D
$GPRMC,172138.000,A,3402.6779,N,11829.6943,W,0.00,187.96,200516,,,A*72
$GPRMC,172139.000,A,3402.6779,N,11829.6943,W,0.00,187.96,200516,,,A*73
$GPRMC,172140.000,A,3402.6779,N,11829.6943,W,0.00,187.96,200516,,,A*7D
$GPRMC,172141.000,A,3402.6779,N,11829.6943,W,0.00,187.96,200516,,,A*7C
$GPRMC,172142.000,A,3402.6779,N,11829.6943,W,0.00,187.96,200516,,,A*7F
$GPRMC,172143.000,A,3402.6779,N,11829.6943,W,0.00,187.96,200516,,,A*7E
$GPRMC,172144.000,A,3402.6779,N,11829.6943,W,0.16,187.96,200516,,,A*7E
$GPRMC,172145.000,A,3402.6779,N,11829.6943,W,0.00,187.96,200516,,,A*78
$GPRMC,172146.000,A,3402.6779,N,11829.6943,W,0.00,187.96,200516,,,A*7B
$GPRMC,172147.000,A,3402.6779,N,11829.6943,W,0.00,187.96,200516,,,A*7A
$GPRMC,172148.000,A,3402.6779,N,11829.6943,W,0.00,187.96,200516,,,A*75
$GPRMC,172149.000,A,3402.6779,N,11829.6943,W,0.00,187.96,200516,,,A*74
$GPRMC,172150.000,A,3402.6779,N,11829.6943,W,0.00,187.96,200516,,,A*7C
$GPRMC,172151.000,A,3402.6779,N,11829.6943,W,0.00,187.96,200516,,,A*7D
$GPRMC,172152.000,A,3402.6779,N,11829.6943,W,0.00,187.96,200516,,,A*7E
$GPRMC,172153.000,A,3402.6779,N,11829.6943,W,0.00,187.96,200516,,,A*7F
$GPRMC,172154.000,A,3402.6779,N,11829.6943,W,0.00,187.96,200516,,,A*78
$GPRMC,172155.000,A,3402.6779,N,11829.6943,W,0.00,187.96,200516,,,A*79
$GPRMC,172156.000,A,3402.6779,N,11829.6943,W,0.00,187.96,200516,,,A*7A
$GPRMC,172157.000,A,3402.6779,N,11829.6943,W,0.00,187.96,200516,,,A*7B
$GPRMC,172158.000,A,3402.6779,N,11829.6943,W,0.00,187.96,200516,,,A*74
$GPRMC,172159.000,A,3402.6779,N,11829.6943,W,0.00,187.96,200516,,,A*75
$GPRMC,172200.000,A,3402.6779,N,11829.6943,W,0.00,187.96,200516,,,A*7A
$GPRMC,172201.000,A,3402.6779,N,11829.6943,W,0.23,187.96,200516,,,A*7A
$GPRMC,172202.000,A,3402.6779,N,11829.6943,W,0.00,187.96,200516,,,A*78
$GPRMC,172203.000,A,3402.6779,N,11829.6943,W,0.00,187.96,200516,,,A*79
$GPRMC,172204.000,A,3402.6779,N,11829.6942,W,0.19,187.96,200516,,,A*77
$GPRMC,172205.000,A,3402.6779,N,11829.6942,W,0.01,187.96,200516,,,A*7F
$GPRMC,172206.000,A,3402.6779,N,11829.6941,W,0.23,187.96,200516,,,A*7F
$GPRMC,172207.000,A,3402.6779,N,11829.6941,W,0.00,187.96,200516,,,A*7F
$GPRMC,172208.000,A,3402.6779,N,11829.6941,W,0.00,187.96,200516,,,A*70
$GPRMC,172209.000,A,3402.6779,N,11829.6941,W,0.00,187.96,200516,,,A*71
$GPRMC,172210.000,A,3402.6779,N,11829.6941,W,0.00,187.96,200516,,,A*79
$GPRMC,172211.000,A,3402.6780,N,11829.6940,W,0.19,187.96,200516,,,A*77
$GPRMC,172212.000,A,3402.6780,N,11829.6940,W,0.01,187.96,200516,,,A*7D
$GPRMC,172213.000,A,3402.6780,N,11829.6940,W,0.00,187.96,200516,,,A*7D
$GPRMC,172214.000,A,3402.6780,N,11829.6940,W,0.00,187.96,200516,,,A*7A
$GPRMC,172215.000,A,3402.6780,N,11829.6940,W,0.00,187.96,200516,,,A*7B
$GPRMC,172216.000,A,3402.6780,N,11829.6940,W,0.00,187.96,200516,,,A*78
$GPRMC,172217.000,A,3402.6780,N,11829.6940,W,0.00,187.96,200516,,,A*79
$GPRMC,172218.000,A,3402.6781,N,11829.6938,W,0.09,187.96,200516,,,A*71
$GPRMC,172219.000,A,3402.6781,N,11829.6938,W,0.00,187.96,200516,,,A*79
$GPRMC,172220.000,A,3402.6781,N,11829.6938,W,0.00,187.96,200516,,,A*73
$GPRMC,172221.000,A,3402.6781,N,11829.6938,W,0.00,187.96,200516,,,A*72
$GPRMC,172222.000,A,3402.6781,N,11829.6938,W,0.00,187.96,200516,,,A*71
$GPRMC,172223.000,A,3402.6781,N,11829.6938,W,0.00,187.96,200516,,,A*70
$GPRMC,172224.000,A,3402.6781,N,11829.6938,W,0.00,187.96,200516,,,A*77
$GPRMC,172225.000,A,3402.6781,N,11829.6938,W,0.00,187.96,200516,,,A*76
$GPRMC,172226.000,A,3402.6781,N,11829.6938,W,0.00,187.96,200516,,,A*75
$GPRMC,172227.000,A,3402.6781,N,11829.6938,W,0.00,187.96,200516,,,A*74
$GPRMC,172228.000,A,3402.6781,N,11829.6938,W,0.00,187.96,200516,,,A*7B
$GPRMC,172229.000,A,3402.6781,N,11829.6938,W,0.00,187.96,200516,,,A*7A
$GPRMC,172230.000,A,3402.6781,N,11829.6938,W,0.00,187.96,200516,,,A*72
$GPRMC,172231.000,A,3402.6781,N,11829.6938,W,0.00,187.96,200516,,,A*73
$GPRMC,172232.000,A,3402.6781,N,11829.6938,W,0.00,187.96,200516,,,A*70
$GPRMC,172233.000,A,3402.6781,N,11829.6938,W,0.00,187.96,200516,,,A*71
$GPRMC,172234.000,A,3402.6781,N,11829.6938,W,0.00,187.96,200516,,,A*76
$GPRMC,172235.000,A,3402.6781,N,11829.6938,W,0.00,187.96,200516,,,A*77
$GPRMC,172236.000,A,3402.6781,N,11829.6938,W,0.00,187.96,200516,,,A*74
$GPRMC,172237.000,A,3402.6781,N,11829.6938,W,0.00,187.96,200516,,,A*75
$GPRMC,172238.000,A,3402.6781,N,11829.6938,W,0.00,187.96,200516,,,A*7A
$GPRMC,172239.000,A,3402.6781,N,11829.6938,W,0.00,187.96,200516,,,A*7B
$GPRMC,172240.000,A,3402.6782,N,11829.6938,W,0.00,187.96,200516,,,A*76
$GPRMC,172241.000,A,3402.6782,N,11829.6938,W,0.00,187.96,200516,,,A*77
$GPRMC,172242.000,A,3402.6782,N,11829.6938,W,0.00,187.96,200516,,,A*74
$GPRMC,172243.000,A,3402.6782,N,11829.6938,W,0.00,187.96,200516,,,A*75
$GPRMC,172244.000,A,3402.6782,N,11829.6938,W,0.00,187.96,200516,,,A*72
$GPRMC,172245.000,A,3402.6782,N,11829.6938,W,0.00,187.96,200516,,,A*73
$GPRMC,172246.000,A,3402.6782,N,11829.6938,W,0.00,187.96,200516,,,A*70
$GPRMC,172247.000,A,3402.6782,N,11829.6938,W,0.00,187.96,200516,,,A*71
$GPRMC,172248.000,A,3402.6782,N,11829.6938,W,0.00,187.96,200516,,,A*7E
$GPRMC,172249.000,A,3402.6782,N,11829.6938,W,0.00,187.96,200516,,,A*7F
$GPRMC,172250.000,A,3402.6782,N,11829.6938,W,0.00,187.96,200516,,,A*77
$GPRMC,172251.000,A,3402.6782,N,11829.6938,W,0.00,187.96,200516,,,A*76
$GPRMC,172252.000,A,3402.6782,N,11829.6938,W,0.00,187.96,200516,,,A*75
$GPRMC,172253.000,A,3402.6782,N,11829.6938,W,0.00,187.96,200516,,,A*74
$GPRMC,172254.000,A,3402.6782,N,11829.6938,W,0.00,187.96,200516,,,A*73
$GPRMC,172255.000,A,3402.6782,N,11829.6938,W,0.00,187.96,200516,,,A*72
$GPRMC,172256.000,A,3402.6782,N,11829.6938,W,0.00,187.96,200516,,,A*71
$GPRMC,172257.000,A,3402.6782,N,11829.6938,W,0.00,187.96,200516,,,A*70
$GPRMC,172258.000,A,3402.6782,N,11829.6938,W,0.00,187.96,200516,,,A*7F
$GPRMC,172259.000,A,3402.6782,N,11829.6938,W,0.00,187.96,200516,,,A*7E
$GPRMC,172300.000,A,3402.6782,N,11829.6938,W,0.00,187.96,200516,,,A*73
$GPRMC,172301.000,A,3402.6782,N,11829.6938,W,0.00,187.96,200516,,,A*72
$GPRMC,172302.000,A,3402.6782,N,11829.6938,W,0.00,187.96,200516,,,A*71
$GPRMC,172303.000,A,3402.6782,N,11829.6938,W,0.00,187.96,200516,,,A*70
$GPRMC,172304.000,A,3402.6782,N,11829.6938,W,0.00,187.96,200516,,,A*77
$GPRMC,172305.000,A,3402.6782,N,11829.6938,W,0.00,187.96,200516,,,A*76
$GPRMC,172306.000,A,3402.6782,N,11829.6938,W,0.00,187.96,200516,,,A*75
$GPRMC,172307.000,A,3402.6782,N,11829.6938,W,0.00,187.96,200516,,,A*74
$GPRMC,172308.000,A,3402.6782,N,11829.6938,W,0.00,187.96,200516,,,A*7B
$GPRMC,172309.000,A,3402.6782,N,11829.6938,W,0.00,187.96,200516,,,A*7A
$GPRMC,172310.000,A,3402.6782,N,11829.6938,W,0.00,187.96,200516,,,A*72
$GPRMC,172311.000,A,3402.6782,N,11829.6938,W,0.00,187.96,200516,,,A*73
$GPRMC,172312.000,A,3402.6782,N,11829.6938,W,0.00,187.96,200516,,,A*70
$GPRMC,172313.000,A,3402.6782,N,11829.6938,W,0.00,187.96,200516,,,A*71
$GPRMC,172314.000,A,3402.6782,N,11829.6938,W,0.00,187.96,200516,,,A*76
$GPRMC,172315.000,A,3402.6782,N,11829.6938,W,0.00,187.96,200516,,,A*77
$GPRMC,172316.000,A,3402.6782,N,11829.6938,W,0.00,187.96,200516,,,A*74
$GPRMC,172317.000,A,3402.6782,N,11829.6938,W,0.00,187.96,200516,,,A*75
$GPRMC,172318.000,A,3402.6782,N,11829.6938,W,0.00,187.96,200516,,,A*7A
$GPRMC,172319.000,A,3402.6782,N,11829.6938,W,0.00,187.96,200516,,,A*7B
$GPRMC,172320.000,A,3402.6782,N,11829.6938,W,0.00,187.96,200516,,,A*71
$GPRMC,172321.000,A,3402.6782,N,11829.6938,W,0.00,187.96,200516,,,A*70
$GPRMC,172322.000,A,3402.6782,N,11829.6938,W,0.00,187.96,200516,,,A*73
$GPRMC,172323.000,A,3402.6782,N,11829.6938,W,0.00,187.96,200516,,,A*72
$GPRMC,172324.000,A,3402.6782,N,11829.6938,W,0.00,187.96,200516,,,A*75
$GPRMC,172325.000,A,3402.6782,N,11829.6938,W,0.00,187.96,200516,,,A*74
$GPRMC,172326.000,A,3402.6782,N,11829.6938,W,0.00,187.96,200516,,,A*77
$GPRMC,172327.000,A,3402.6782,N,11829.6938,W,0.00,187.96,200516,,,A*76
$GPRMC,172328.000,A,3402.6782,N,11829.6938,W,0.00,187.96,200516,,,A*79
$GPRMC,172329.000,A,3402.6782,N,11829.6938,W,0.00,187.96,200516,,,A*78
$GPRMC,172330.000,A,3402.6782,N,11829.6938,W,0.00,187.96,200516,,,A*70
$GPRMC,172331.000,A,3402.6782,N,11829.6938,W,0.00,187.96,200516,,,A*71
$GPRMC,172332.000,A,3402.6782,N,11829.6938,W,0.00,187.96,200516,,,A*72
$GPRMC,172333.000,A,3402.6782,N,11829.6938,W,0.00,187.96,200516,,,A*73
$GPRMC,172334.000,A,3402.6782,N,11829.6938,W,0.00,187.96,200516,,,A*74
$GPRMC,172335.000,A,3402.6782,N,11829.6937,W,0.00,187.96,200516,,,A*7A
$GPRMC,172336.000,A,3402.6782,N,11829.6936,W,0.15,187.96,200516,,,A*7C
$GPRMC,172337.000,A,3402.6782,N,11829.6936,W,0.00,187.96,200516,,,A*79
$GPRMC,172338.000,A,3402.6782,N,11829.6936,W,0.00,187.96,200516,,,A*76
$GPRMC,172339.000,A,3402.6782,N,11829.6936,W,0.00,187.96,200516,,,A*77
$GPRMC,172340.000,A,3402.6782,N,11829.6936,W,0.00,187.96,200516,,,A*79
$GPRMC,172341.000,A,3402.6782,N,11829.6936,W,0.00,187.96,200516,,,A*78
$GPRMC,172342.000,A,3402.6782,N,11829.6936,W,0.00,187.96,200516,,,A*7B
$GPRMC,172343.000,A,3402.6781,N,11829.6935,W,0.15,187.96,200516,,,A*7E
$GPRMC,172344.000,A,3402.6781,N,11829.6935,W,0.00,187.96,200516,,,A*7D
$GPRMC,172345.000,A,3402.6781,N,11829.6935,W,0.00,187.96,200516,,,A*7C
$GPRMC,172346.000,A,3402.6781,N,11829.6935,W,0.00,187.96,200516,,,A*7F
$GPRMC,172347.000,A,3402.6781,N,11829.6935,W,0.00,187.96,200516,,,A*7E
$GPRMC,172348.000,A,3402.6781,N,11829.6935,W,0.00,187.96,200516,,,A*71
$GPRMC,172349.000,A,3402.6781,N,11829.6935,W,0.00,187.96,200516,,,A*70
$GPRMC,172350.000,A,3402.6781,N,11829.6934,W,0.13,187.96,200516,,,A*7B
$GPRMC,172351.000,A,3402.6781,N,11829.6934,W,0.01,187.96,200516,,,A*79
$GPRMC,172352.000,A,3402.6781,N,11829.6934,W,0.00,187.96,200516,,,A*7B
$GPRMC,172353.000,A,3402.6781,N,11829.6934,W,0.00,187.96,200516,,,A*7A
$GPRMC,172354.000,A,3402.6781,N,11829.6934,W,0.00,187.96,200516,,,A*7D
$GPRMC,172355.000,A,3402.6781,N,11829.6934,W,0.00,187.96,200516,,,A*7C
$GPRMC,172356.000,A,3402.6781,N,11829.6934,W,0.00,187.96,200516,,,A*7F
$GPRMC,172357.000,A,3402.6781,N,11829.6934,W,0.00,187.96,200516,,,A*7E
$GPRMC,172358.000,A,3402.6781,N,11829.6934,W,0.00,187.96,200516,,,A*71
$GPRMC,172359.000,A,3402.6781,N,11829.6934,W,0.00,187.96,200516,,,A*70
$GPRMC,172400.000,A,3402.6781,N,11829.6934,W,0.00,187.96,200516,,,A*7B
$GPRMC,172401.000,A,3402.6781,N,11829.6934,W,0.00,187.96,200516,,,A*7A
$GPRMC,172402.000,A,3402.6781,N,11829.6934,W,0.00,187.96,200516,,,A*79
$GPRMC,172403.000,A,3402.6781,N,11829.6934,W,0.00,187.96,200516,,,A*78
$GPRMC,172404.000,A,3402.6781,N,11829.6934,W,0.00,187.96,200516,,,A*7F
$GPRMC,172405.000,A,3402.6781,N,11829.6934,W,0.00,187.96,200516,,,A*7E
$GPRMC,172406.000,A,3402.6781,N,11829.6934,W,0.00,187.96,200516,,,A*7D
$GPRMC,172407.000,A,3402.6781,N,11829.6934,W,0.00,187.96,200516,,,A*7C
$GPRMC,172408.000,A,3402.6781,N,11829.6934,W,0.00,187.96,200516,,,A*73
$GPRMC,172409.000,A,3402.6781,N,11829.6934,W,0.00,187.96,200516,,,A*72
$GPRMC,172410.000,A,3402.6781,N,11829.6934,W,0.00,187.96,200516,,,A*7A
$GPRMC,172411.000,A,3402.6781,N,11829.6934,W,0.00,187.96,200516,,,A*7B
$GPRMC,172412.000,A,3402.6781,N,11829.6934,W,0.00,187.96,200516,,,A*78
$GPRMC,172413.000,A,3402.6781,N,11829.6934,W,0.00,187.96,200516,,,A*79
$GPRMC,172414.000,A,3402.6781,N,11829.6934,W,0.00,187.96,200516,,,A*7E
$GPRMC,172415.000,A,3402.6781,N,11829.6934,W,0.00,187.96,200516,,,A*7F
$GPRMC,172416.000,A,3402.6781,N,11829.6934,W,0.00,187.96,200516,,,A*7C
$GPRMC,172417.000,A,3402.6782,N,11829.6934,W,0.00,187.96,200516,,,A*7E
$GPRMC,172418.000,A,3402.6782,N,11829.6934,W,0.00,187.96,200516,,,A*71
$GPRMC,172419.000,A,3402.6782,N,11829.6934,W,0.00,187.96,200516,,,A*70
$GPRMC,172420.000,A,3402.6782,N,11829.6934,W,0.00,187.96,200516,,,A*7A
$GPRMC,172421.000,A,3402.6782,N,11829.6934,W,0.00,187.96,200516,,,A*7B
$GPRMC,172422.000,A,3402.6782,N,11829.6934,W,0.00,187.96,200516,,,A*78
$GPRMC,172423.000,A,3402.6782,N,11829.6934,W,0.00,187.96,200516,,,A*79
$GPRMC,172424.000,A,3402.6782,N,11829.6934,W,0.00,187.96,200516,,,A*7E
$GPRMC,172425.000,A,3402.6782,N,11829.6934,W,0.00,187.96,200516,,,A*7F
$GPRMC,172426.000,A,3402.6782,N,11829.6934,W,0.00,187.96,200516,,,A*7C
$GPRMC,172427.000,A,3402.6782,N,11829.6934,W,0.00,187.96,200516,,,A*7D
$GPRMC,172428.000,A,3402.6782,N,11829.6934,W,0.00,187.96,200516,,,A*72
$GPRMC,172429.000,A,3402.6782,N,11829.6934,W,0.00,187.96,200516,,,A*73
$GPRMC,172430.000,A,3402.6782,N,11829.6934,W,0.00,187.96,200516,,,A*7B
$GPRMC,172431.000,A,3402.6782,N,11829.6934,W,0.00,187.96,200516,,,A*7A
$GPRMC,172432.000,A,3402.6782,N,11829.6934,W,0.00,187.96,200516,,,A*79
$GPRMC,172433.000,A,3402.6782,N,11829.6934,W,0.00,187.96,200516,,,A*78
$GPRMC,172434.000,A,3402.6782,N,11829.6934,W,0.00,187.96,200516,,,A*7F
$GPRMC,172435.000,A,3402.6782,N,11829.6934,W,0.00,187.96,200516,,,A*7E
$GPRMC,172436.000,A,3402.6782,N,11829.6934,W,0.00,187.96,200516,,,A*7D
$GPRMC,172437.000,A,3402.6782,N,11829.6934,W,0.00,187.96,200516,,,A*7C
$GPRMC,172438.000,A,3402.6782,N,11829.6934,W,0.00,187.96,200516,,,A*73
$GPRMC,172439.000,A,3402.6782,N,11829.6934,W,0.00,187.96,200516,,,A*72
$GPRMC,172440.000,A,3402.6782,N,11829.6934,W,0.00,187.96,200516,,,A*7C
$GPRMC,172441.000,A,3402.6782,N,11829.6934,W,0.00,187.96,200516,,,A*7D
$GPRMC,172442.000,A,3402.6782,N,11829.6934,W,0.00,187.96,200516,,,A*7E
$GPRMC,172443.000,A,3402.6782,N,11829.6934,W,0.00,187.96,200516,,,A*7F
$GPRMC,172444.000,A,3402.6782,N,11829.6934,W,0.00,187.96,200516,,,A*78
$GPRMC,172445.000,A,3402.6782,N,11829.6934,W,0.00,187.96,200516,,,A*79
$GPRMC,172446.000,A,3402.6782,N,11829.6934,W,0.00,187.96,200516,,,A*7A
$GPRMC,172447.000,A,3402.6782,N,11829.6934,W,0.00,187.96,200516,,,A*7B
$GPRMC,172448.000,A,3402.6782,N,11829.6934,W,0.00,187.96,200516,,,A*74
$GPRMC,172449.000,A,3402.6782,N,11829.6934,W,0.00,187.96,200516,,,A*75
$GPRMC,172450.000,A,3402.6782,N,11829.6934,W,0.00,187.96,200516,,,A*7D
$GPRMC,172451.000,A,3402.6782,N,11829.6934,W,0.00,187.96,200516,,,A*7C
$GPRMC,172452.000,A,3402.6782,N,11829.6934,W,0.00,187.96,200516,,,A*7F
$GPRMC,172453.000,A,3402.6782,N,11829.6934,W,0.00,187.96,200516,,,A*7E
$GPRMC,172454.000,A,3402.6782,N,11829.6934,W,0.00,187.96,200516,,,A*79
$GPRMC,172455.000,A,3402.6782,N,11829.6934,W,0.00,187.96,200516,,,A*78
$GPRMC,172456.000,A,3402.6782,N,11829.6934,W,0.06,187.96,200516,,,A*7D
$GPRMC,172457.000,A,3402.6782,N,11829.6934,W,0.00,187.96,200516,,,A*7A
$GPRMC,172458.000,A,3402.6782,N,11829.6934,W,0.00,187.96,200516,,,A*75
$GPRMC,172459.000,A,3402.6782,N,11829.6934,W,0.00,187.96,200516,,,A*74
$GPRMC,172500.000,A,3402.6782,N,11829.6934,W,0.00,187.96,200516,,,A*79
$GPRMC,172501.000,A,3402.6782,N,11829.6934,W,0.00,187.96,200516,,,A*78
$GPRMC,172502.000,A,3402.6782,N,11829.6934,W,0.00,187.96,200516,,,A*7B
$GPRMC,172503.000,A,3402.6782,N,11829.6933,W,0.08,187.96,200516,,,A*75
$GPRMC,172504.000,A,3402.6782,N,11829.6933,W,0.00,187.96,200516,,,A*7A
$GPRMC,172505.000,A,3402.6782,N,11829.6933,W,0.00,187.96,200516,,,A*7B
$GPRMC,172506.000,A,3402.6782,N,11829.6933,W,0.00,187.96,200516,,,A*78
$GPRMC,172507.000,A,3402.6782,N,11829.6933,W,0.00,187.96,200516,,,A*79
$GPRMC,172508.000,A,3402.6782,N,11829.6933,W,0.00,187.96,200516,,,A*76
$GPRMC,172509.000,A,3402.6782,N,11829.6933,W,0.00,187.96,200516,,,A*77
$GPRMC,172510.000,A,3402.6782,N,11829.6933,W,0.00,187.96,200516,,,A*7F
$GPRMC,172511.000,A,3402.6782,N,11829.6933,W,0.00,187.96,200516,,,A*7E
$GPRMC,172512.000,A,3402.6782,N,11829.6933,W,0.00,187.96,200516,,,A*7D
$GPRMC,172513.000,A,3402.6782,N,11829.6933,W,0.00,187.96,200516,,,A*7C
$GPRMC,172514.000,A,3402.6782,N,11829.6933,W,0.00,187.96,200516,,,A*7B
$GPRMC,172515.000,A,3402.6782,N,11829.6933,W,0.00,187.96,200516,,,A*7A
$GPRMC,172516.000,A,3402.6782,N,11829.6933,W,0.00,187.96,200516,,,A*79
$GPRMC,172517.000,A,3402.6782,N,11829.6933,W,0.00,187.96,200516,,,A*78
$GPRMC,172518.000,A,3402.6782,N,11829.6933,W,0.00,187.96,200516,,,A*77
$GPRMC,172519.000,A,3402.6782,N,11829.6933,W,0.00,187.96,200516,,,A*76
$GPRMC,172520.000,A,3402.6782,N,11829.6933,W,0.00,187.96,200516,,,A*7C
$GPRMC,172521.000,A,3402.6782,N,11829.6933,W,0.00,187.96,200516,,,A*7D
$GPRMC,172522.000,A,3402.6782,N,11829.6933,W,0.00,187.96,200516,,,A*7E
$GPRMC,172523.000,A,3402.6782,N,11829.6933,W,0.00,187.96,200516,,,A*7F
$GPRMC,172524.000,A,3402.6782,N,11829.6933,W,0.00,187.96,200516,,,A*78
$GPRMC,172525.000,A,3402.6782,N,11829.6933,W,0.00,187.96,200516,,,A*79
$GPRMC,172526.000,A,3402.6782,N,11829.6933,W,0.00,187.96,200516,,,A*7A
$GPRMC,172527.000,A,3402.6782,N,11829.6933,W,0.00,187.96,200516,,,A*7B
$GPRMC,172528.000,A,3402.6782,N,11829.6933,W,0.00,187.96,200516,,,A*74
$GPRMC,172529.000,A,3402.6782,N,11829.6933,W,0.00,187.96,200516,,,A*75
$GPRMC,172530.000,A,3402.6782,N,11829.6933,W,0.00,187.96,200516,,,A*7D
$GPRMC,172531.000,A,3402.6782,N,11829.6933,W,0.00,187.96,200516,,,A*7C
$GPRMC,172532.000,A,3402.6782,N,11829.6933,W,0.00,187.96,200516,,,A*7F
$GPRMC,172533.000,A,3402.6782,N,11829.6933,W,0.00,187.96,200516,,,A*7E
$GPRMC,172534.000,A,3402.6782,N,11829.6933,W,0.00,187.96,200516,,,A*79
$GPRMC,172535.000,A,3402.6782,N,11829.6933,W,0.00,187.96,200516,,,A*78
$GPRMC,172536.000,A,3402.6782,N,11829.6933,W,0.00,187.96,200516,,,A*7B
$GPRMC,172537.000,A,3402.6782,N,11829.6933,W,0.00,187.96,200516,,,A*7A
$GPRMC,172538.000,A,3402.6782,N,11829.6933,W,0.00,187.96,200516,,,A*75
$GPRMC,172539.000,A,3402.6782,N,11829.6933,W,0.00,187.96,200516,,,A*74
$GPRMC,172540.000,A,3402.6782,N,11829.6933,W,0.00,187.96,200516,,,A*7A
$GPRMC,172541.000,A,3402.6782,N,11829.6933,W,0.00,187.96,200516,,,A*7B
$GPRMC,172542.000,A,3402.6782,N,11829.6933,W,0.00,187.96,200516,,,A*78
$GPRMC,172543.000,A,3402.6782,N,11829.6933,W,0.00,187.96,200516,,,A*79
$GPRMC,172544.000,A,3402.6782,N,11829.6933,W,0.00,187.96,200516,,,A*7E
$GPRMC,172545.000,A,3402.6782,N,11829.6933,W,0.00,187.96,200516,,,A*7F
$GPRMC,172546.000,A,3402.6782,N,11829.6933,W,0.00,187.96,200516,,,A*7C
$GPRMC,172547.000,A,3402.6782,N,11829.6933,W,0.00,187.96,200516,,,A*7D
$GPRMC,172548.000,A,3402.6782,N,11829.6933,W,0.00,187.96,200516,,,A*72
$GPRMC,172549.000,A,3402.6782,N,11829.6933,W,0.00,187.96,200516,,,A*73
$GPRMC,172550.000,A,3402.6782,N,11829.6931,W,0.07,187.96,200516,,,A*7E
$GPRMC,172551.000,A,3402.6782,N,11829.6931,W,0.00,187.96,200516,,,A*78
$GPRMC,172552.000,A,3402.6782,N,11829.6931,W,0.00,187.96,200516,,,A*7B
$GPRMC,172553.000,A,3402.6782,N,11829.6931,W,0.00,187.96,200516,,,A*7A
$GPRMC,172554.000,A,3402.6782,N,11829.6931,W,0.00,187.96,200516,,,A*7D
$GPRMC,172555.000,A,3402.6782,N,11829.6931,W,0.00,187.96,200516,,,A*7C
$GPRMC,172556.000,A,3402.6782,N,11829.6931,W,0.00,187.96,200516,,,A*7F
$GPRMC,172557.000,A,3402.6782,N,11829.6931,W,0.00,187.96,200516,,,A*7E
$GPRMC,172558.000,A,3402.6782,N,11829.6930,W,0.06,187.96,200516,,,A*76
$GPRMC,172559.000,A,3402.6783,N,11829.6930,W,0.00,187.96,200516,,,A*70
$GPRMC,172600.000,A,3402.6783,N,11829.6930,W,0.00,187.96,200516,,,A*7F
$GPRMC,172601.000,A,3402.6783,N,11829.6930,W,0.00,187.96,200516,,,A*7E
$GPRMC,172602.000,A,3402.6783,N,11829.6930,W,0.00,187.96,200516,,,A*7D
$GPRMC,172603.000,A,3402.6783,N,11829.6930,W,0.00,187.96,200516,,,A*7C
$GPRMC,172604.000,A,3402.6783,N,11829.6930,W,0.00,187.96,200516,,,A*7B
$GPRMC,172605.000,A,3402.6783,N,11829.6930,W,0.00,187.96,200516,,,A*7A
$GPRMC,172606.000,A,3402.6783,N,11829.6930,W,0.00,187.96,200516,,,A*79
$GPRMC,172607.000,A,3402.6783,N,11829.6930,W,0.00,187.96,200516,,,A*78
$GPRMC,172608.000,A,3402.6783,N,11829.6930,W,0.00,187.96,200516,,,A*77
$GPRMC,172609.000,A,3402.6783,N,11829.6930,W,0.00,187.96,200516,,,A*76
$GPRMC,172610.000,A,3402.6783,N,11829.6930,W,0.00,187.96,200516,,,A*7E
$GPRMC,172611.000,A,3402.6783,N,11829.6930,W,0.00,187.96,200516,,,A*7F
$GPRMC,172612.000,A,3402.6783,N,11829.6930,W,0.00,187.96,200516,,,A*7C
$GPRMC,172613.000,A,3402.6783,N,11829.6930,W,0.00,187.96,200516,,,A*7D
$GPRMC,172614.000,A,3402.6783,N,11829.6930,W,0.00,187.96,200516,,,A*7A
$GPRMC,172615.000,A,3402.6783,N,11829.6930,W,0.00,187.96,200516,,,A*7B
$GPRMC,172616.000,A,3402.6783,N,11829.6930,W,0.00,187.96,200516,,,A*78
$GPRMC,172617.000,A,3402.6783,N,11829.6930,W,0.00,187.96,200516,,,A*79
$GPRMC,172618.000,A,3402.6783,N,11829.6930,W,0.00,187.96,200516,,,A*76
$GPRMC,172619.000,A,3402.6783,N,11829.6930,W,0.00,187.96,200516,,,A*77
$GPRMC,172620.000,A,3402.6783,N,11829.6930,W,0.00,187.96,200516,,,A*7D
$GPRMC,172621.000,A,3402.6783,N,11829.6930,W,0.00,187.96,200516,,,A*7C
$GPRMC,172622.000,A,3402.6783,N,11829.6930,W,0.00,187.96,200516,,,A*7F
$GPRMC,172623.000,A,3402.6783,N,11829.6930,W,0.00,187.96,200516,,,A*7E
$GPRMC,172624.000,A,3402.6783,N,11829.6930,W,0.00,187.96,200516,,,A*79
$GPRMC,172625.000,A,3402.6783,N,11829.6930,W,0.00,187.96,200516,,,A*78
$GPRMC,172626.000,A,3402.6783,N,11829.6930,W,0.00,187.96,200516,,,A*7B
$GPRMC,172627.000,A,3402.6783,N,11829.6930,W,0.00,187.96,200516,,,A*7A
$GPRMC,172628.000,A,3402.6783,N,11829.6930,W,0.00,187.96,200516,,,A*75
$GPRMC,172629.000,A,3402.6783,N,11829.6930,W,0.00,187.96,200516,,,A*74
$GPRMC,172630.000,A,3402.6783,N,11829.6930,W,0.00,187.96,200516,,,A*7C
$GPRMC,172631.000,A,3402.6783,N,11829.6930,W,0.00,187.96,200516,,,A*7D
$GPRMC,172632.000,A,3402.6783,N,11829.6930,W,0.00,187.96,200516,,,A*7E
$GPRMC,172633.000,A,3402.6782,N,11829.6930,W,0.00,187.96,200516,,,A*7E
$GPRMC,172634.000,A,3402.6782,N,11829.6930,W,0.00,187.96,200516,,,A*79
$GPRMC,172635.000,A,3402.6782,N,11829.6930,W,0.00,187.96,200516,,,A*78
$GPRMC,172636.000,A,3402.6782,N,11829.6930,W,0.00,187.96,200516,,,A*7B
$GPRMC,172637.000,A,3402.6782,N,11829.6930,W,0.00,187.96,200516,,,A*7A
$GPRMC,172638.000,A,3402.6782,N,11829.6930,W,0.00,187.96,200516,,,A*75
$GPRMC,172639.000,A,3402.6782,N,11829.6930,W,0.00,187.96,200516,,,A*74
$GPRMC,172640.000,A,3402.6782,N,11829.6930,W,0.00,187.96,200516,,,A*7A
$GPRMC,172641.000,A,3402.6782,N,11829.6930,W,0.00,187.96,200516,,,A*7B
$GPRMC,172642.000,A,3402.6782,N,11829.6930,W,0.00,187.96,200516,,,A*78
$GPRMC,172643.000,A,3402.6782,N,11829.6930,W,0.00,187.96,200516,,,A*79
$GPRMC,172644.000,A,3402.6782,N,11829.6930,W,0.00,187.96,200516,,,A*7E
$GPRMC,172645.000,A,3402.6782,N,11829.6930,W,0.00,187.96,200516,,,A*7F
$GPRMC,172646.000,A,3402.6782,N,11829.6930,W,0.00,187.96,200516,,,A*7C
$GPRMC,172647.000,A,3402.6782,N,11829.6930,W,0.00,187.96,200516,,,A*7D
$GPRMC,172648.000,A,3402.6782,N,11829.6930,W,0.00,187.96,200516,,,A*72
$GPRMC,172649.000,A,3402.6782,N,11829.6930,W,0.00,187.96,200516,,,A*73
$GPRMC,172650.000,A,3402.6782,N,11829.6930,W,0.00,187.96,200516,,,A*7B
$GPRMC,172651.000,A,3402.6782,N,11829.6930,W,0.00,187.96,200516,,,A*7A
$GPRMC,172652.000,A,3402.6782,N,11829.6930,W,0.00,187.96,200516,,,A*79
$GPRMC,172653.000,A,3402.6782,N,11829.6930,W,0.00,187.96,200516,,,A*78
$GPRMC,172654.000,A,3402.6782,N,11829.6930,W,0.00,187.96,200516,,,A*7F
$GPRMC,172655.000,A,3402.6782,N,11829.6930,W,0.00,187.96,200516,,,A*7E
$GPRMC,172656.000,A,3402.6782,N,11829.6930,W,0.00,187.96,200516,,,A*7D
$GPRMC,172657.000,A,3402.6782,N,11829.6930,W,0.00,187.96,200516,,,A*7C
$GPRMC,172658.000,A,3402.6782,N,11829.6930,W,0.00,187.96,200516,,,A*73
$GPRMC,172659.000,A,3402.6782,N,11829.6930,W,0.00,187.96,200516,,,A*72
$GPRMC,172700.000,A,3402.6782,N,11829.6930,W,0.00,187.96,200516,,,A*7F
$GPRMC,172701.000,A,3402.6782,N,11829.6930,W,0.00,187.96,200516,,,A*7E
$GPRMC,172702.000,A,3402.6782,N,11829.6930,W,0.00,187.96,200516,,,A*7D
$GPRMC,172703.000,A,3402.6782,N,11829.6930,W,0.00,187.96,200516,,,A*7C
$GPRMC,172704.000,A,3402.6782,N,11829.6930,W,0.00,187.96,200516,,,A*7B
$GPRMC,172705.000,A,3402.6782,N,11829.6930,W,0.00,187.96,200516,,,A*7A
$GPRMC,172706.000,A,3402.6782,N,11829.6930,W,0.00,187.96,200516,,,A*79
$GPRMC,172707.000,A,3402.6782,N,11829.6930,W,0.00,187.96,200516,,,A*78
$GPRMC,172708.000,A,3402.6782,N,11829.6930,W,0.00,187.96,200516,,,A*77
$GPRMC,172709.000,A,3402.6783,N,11829.6930,W,0.21,187.96,200516,,,A*74
$GPRMC,172710.000,A,3402.6783,N,11829.6929,W,0.16,187.96,200516,,,A*70
$GPRMC,172711.000,A,3402.6784,N,11829.6927,W,0.34,187.96,200516,,,A*78
$GPRMC,172712.000,A,3402.6784,N,11829.6925,W,0.33,187.96,200516,,,A*7E
$GPRMC,172713.000,A,3402.6784,N,11829.6922,W,0.20,187.96,200516,,,A*7A
$GPRMC,172714.000,A,3402.6783,N,11829.6920,W,0.31,187.96,200516,,,A*78
$GPRMC,172715.000,A,3402.6783,N,11829.6917,W,0.37,187.96,200516,,,A*7B
$GPRMC,172716.000,A,3402.6783,N,11829.6918,W,0.00,187.96,200516,,,A*73
$GPRMC,172717.000,A,3402.6783,N,11829.6918,W,0.00,187.96,200516,,,A*72
$GPRMC,172718.000,A,3402.6783,N,11829.6918,W,0.00,187.96,200516,,,A*7D
$GPRMC,172719.000,A,3402.6782,N,11829.6915,W,0.13,187.96,200516,,,A*72
$GPRMC,172720.000,A,3402.6782,N,11829.6911,W,0.52,187.96,200516,,,A*79
$GPRMC,172721.000,A,3402.6781,N,11829.6912,W,0.01,187.96,200516,,,A*7E
$GPRMC,172722.000,A,3402.6781,N,11829.6912,W,0.00,187.96,200516,,,A*7C
$GPRMC,172723.000,A,3402.6781,N,11829.6910,W,0.26,187.96,200516,,,A*7B
$GPRMC,172724.000,A,3402.6779,N,11829.6911,W,0.74,187.96,200516,,,A*7D
$GPRMC,172725.000,A,3402.6778,N,11829.6911,W,0.30,187.96,200516,,,A*7D
$GPRMC,172726.000,A,3402.6777,N,11829.6911,W,0.20,187.96,200516,,,A*70
$GPRMC,172727.000,A,3402.6777,N,11829.6910,W,0.24,187.96,200516,,,A*74
$GPRMC,172728.000,A,3402.6777,N,11829.6910,W,0.00,187.96,200516,,,A*7D
$GPRMC,172729.000,A,3402.6777,N,11829.6910,W,0.00,187.96,200516,,,A*7C
$GPRMC,172730.000,A,3402.6778,N,11829.6910,W,0.10,187.96,200516,,,A*7A
$GPRMC,172731.000,A,3402.6777,N,11829.6910,W,0.27,187.96,200516,,,A*70
$GPRMC,172732.000,A,3402.6777,N,11829.6910,W,0.00,187.96,200516,,,A*76
$GPRMC,172733.000,A,3402.6777,N,11829.6910,W,0.00,187.96,200516,,,A*77
$GPRMC,172734.000,A,3402.6777,N,11829.6910,W,0.00,187.96,200516,,,A*70
$GPRMC,172735.000,A,3402.6778,N,11829.6910,W,0.04,187.96,200516,,,A*7A
$GPRMC,172736.000,A,3402.6778,N,11829.6910,W,0.00,187.96,200516,,,A*7D
$GPRMC,172737.000,A,3402.6778,N,11829.6910,W,0.00,187.96,200516,,,A*7C
$GPRMC,172738.000,A,3402.6778,N,11829.6910,W,0.00,187.96,200516,,,A*73
$GPRMC,172739.000,A,3402.6778,N,11829.6910,W,0.00,187.96,200516,,,A*72
$GPRMC,172740.000,A,3402.6778,N,11829.6910,W,0.00,187.96,200516,,,A*7C
$GPRMC,172741.000,A,3402.6778,N,11829.6910,W,0.00,187.96,200516,,,A*7D
$GPRMC,172742.000,A,3402.6778,N,11829.6910,W,0.00,187.96,200516,,,A*7E
$GPRMC,172743.000,A,3402.6778,N,11829.6910,W,0.12,187.96,200516,,,A*7C
$GPRMC,172744.000,A,3402.6778,N,11829.6910,W,0.00,187.96,200516,,,A*78
$GPRMC,172745.000,A,3402.6778,N,11829.6910,W,0.00,187.96,200516,,,A*79
$GPRMC,172746.000,A,3402.6778,N,11829.6910,W,0.00,187.96,200516,,,A*7A
$GPRMC,172747.000,A,3402.6779,N,11829.6910,W,0.06,187.96,200516,,,A*7C
$GPRMC,172748.000,A,3402.6779,N,11829.6910,W,0.00,187.96,200516,,,A*75
$GPRMC,172749.000,A,3402.6780,N,11829.6909,W,0.15,187.96,200516,,,A*7E
$GPRMC,172750.000,A,3402.6780,N,11829.6909,W,0.00,187.96,200516,,,A*72
$GPRMC,172751.000,A,3402.6780,N,11829.6909,W,0.00,187.96,200516,,,A*73
$GPRMC,172752.000,A,3402.6780,N,11829.6909,W,0.00,187.96,200516,,,A*70
$GPRMC,172753.000,A,3402.6780,N,11829.6909,W,0.00,187.96,200516,,,A*71
$GPRMC,172754.000,A,3402.6780,N,11829.6910,W,0.04,187.96,200516,,,A*7A
$GPRMC,172755.000,A,3402.6780,N,11829.6910,W,0.00,187.96,200516,,,A*7F
$GPRMC,172756.000,A,3402.6781,N,11829.6910,W,0.00,187.96,200516,,,A*7D
$GPRMC,172757.000,A,3402.6781,N,11829.6910,W,0.00,187.96,200516,,,A*7C
$GPRMC,172758.000,A,3402.6781,N,11829.6910,W,0.00,187.96,200516,,,A*73
$GPRMC,172759.000,A,3402.6781,N,11829.6910,W,0.00,187.96,200516,,,A*72
$GPRMC,172800.000,A,3402.6781,N,11829.6910,W,0.00,187.96,200516,,,A*71
$GPRMC,172801.000,A,3402.6781,N,11829.6910,W,0.00,187.96,200516,,,A*70
$GPRMC,172802.000,A,3402.6781,N,11829.6910,W,0.00,187.96,200516,,,A*73
$GPRMC,172803.000,A,3402.6781,N,11829.6910,W,0.00,187.96,200516,,,A*72
$GPRMC,172804.000,A,3402.6781,N,11829.6910,W,0.00,187.96,200516,,,A*75
$GPRMC,172805.000,A,3402.6781,N,11829.6910,W,0.00,187.96,200516,,,A*74
$GPRMC,172806.000,A,3402.6781,N,11829.6910,W,0.00,187.96,200516,,,A*77
$GPRMC,172807.000,A,3402.6781,N,11829.6910,W,0.00,187.96,200516,,,A*76
$GPRMC,172808.000,A,3402.6781,N,11829.6910,W,0.00,187.96,200516,,,A*79
$GPRMC,172809.000,A,3402.6781,N,11829.6910,W,0.00,187.96,200516,,,A*78
$GPRMC,172810.000,A,3402.6781,N,11829.6910,W,0.00,187.96,200516,,,A*70
$GPRMC,172811.000,A,3402.6781,N,11829.6910,W,0.00,187.96,200516,,,A*71
$GPRMC,172812.000,A,3402.6781,N,11829.6910,W,0.00,187.96,200516,,,A*72
$GPRMC,172813.000,A,3402.6781,N,11829.6910,W,0.00,187.96,200516,,,A*73
$GPRMC,172814.000,A,3402.6781,N,11829.6910,W,0.00,187.96,200516,,,A*74
$GPRMC,172815.000,A,3402.6781,N,11829.6910,W,0.00,187.96,200516,,,A*75
$GPRMC,172816.000,A,3402.6781,N,11829.6910,W,0.00,187.96,200516,,,A*76
$GPRMC,172817.000,A,3402.6781,N,11829.6910,W,0.00,187.96,200516,,,A*77
$GPRMC,172818.000,A,3402.6781,N,11829.6910,W,0.00,187.96,200516,,,A*78
$GPRMC,172819.000,A,3402.6781,N,11829.6910,W,0.00,187.96,200516,,,A*79
$GPRMC,172820.000,A,3402.6781,N,11829.6910,W,0.00,187.96,200516,,,A*73
$GPRMC,172821.000,A,3402.6781,N,11829.6910,W,0.00,187.96,200516,,,A*72
$GPRMC,172822.000,A,3402.6781,N,11829.6910,W,0.00,187.96,200516,,,A*71
$GPRMC,172823.000,A,3402.6781,N,11829.6910,W,0.00,187.96,200516,,,A*70
$GPRMC,172824.000,A,3402.6781,N,11829.6910,W,0.00,187.96,200516,,,A*77
$GPRMC,172825.000,A,3402.6781,N,11829.6910,W,0.00,187.96,200516,,,A*76
$GPRMC,172826.000,A,3402.6781,N,11829.6910,W,0.00,187.96,200516,,,A*75
$GPRMC,172827.000,A,3402.6781,N,11829.6910,W,0.00,187.96,200516,,,A*74
$GPRMC,172828.000,A,3402.6781,N,11829.6910,W,0.00,187.96,200516,,,A*7B
$GPRMC,172829.000,A,3402.6781,N,11829.6910,W,0.00,187.96,200516,,,A*7A
$GPRMC,172830.000,A,3402.6781,N,11829.6910,W,0.00,187.96,200516,,,A*72
$GPRMC,172831.000,A,3402.6781,N,11829.6910,W,0.00,187.96,200516,,,A*73
$GPRMC,172832.000,A,3402.6781,N,11829.6910,W,0.00,187.96,200516,,,A*70
$GPRMC,172833.000,A,3402.6781,N,11829.6910,W,0.00,187.96,200516,,,A*71
$GPRMC,172834.000,A,3402.6781,N,11829.6910,W,0.00,187.96,200516,,,A*76
$GPRMC,172835.000,A,3402.6781,N,11829.6910,W,0.00,187.96,200516,,,A*77
$GPRMC,172836.000,A,3402.6781,N,11829.6910,W,0.00,187.96,200516,,,A*74
$GPRMC,172837.000,A,3402.6781,N,11829.6910,W,0.00,187.96,200516,,,A*75
$GPRMC,172838.000,A,3402.6781,N,11829.6910,W,0.00,187.96,200516,,,A*7A
$GPRMC,172839.000,A,3402.6781,N,11829.6910,W,0.00,187.96,200516,,,A*7B
$GPRMC,172840.000,A,3402.6781,N,11829.6910,W,0.00,187.96,200516,,,A*75
$GPRMC,172841.000,A,3402.6781,N,11829.6910,W,0.00,187.96,200516,,,A*74
$GPRMC,172842.000,A,3402.6781,N,11829.6910,W,0.00,187.96,200516,,,A*77
$GPRMC,172843.000,A,3402.6781,N,11829.6910,W,0.00,187.96,200516,,,A*76
$GPRMC,172844.000,A,3402.6781,N,11829.6910,W,0.00,187.96,200516,,,A*71
$GPRMC,172845.000,A,3402.6781,N,11829.6910,W,0.00,187.96,200516,,,A*70
$GPRMC,172846.000,A,3402.6781,N,11829.6910,W,0.00,187.96,200516,,,A*73
$GPRMC,172847.000,A,3402.6781,N,11829.6910,W,0.00,187.96,200516,,,A*72
$GPRMC,172848.000,A,3402.6781,N,11829.6910,W,0.00,187.96,200516,,,A*7D
$GPRMC,172849.000,A,3402.6781,N,11829.6910,W,0.00,187.96,200516,,,A*7C
$GPRMC,172850.000,A,3402.6781,N,11829.6910,W,0.00,187.96,200516,,,A*74
$GPRMC,172851.000,A,3402.6781,N,11829.6910,W,0.00,187.96,200516,,,A*75
$GPRMC,172852.000,A,3402.6781,N,11829.6910,W,0.00,187.96,200516,,,A*76
$GPRMC,172853.000,A,3402.6781,N,11829.6910,W,0.00,187.96,200516,,,A*77
$GPRMC,172854.000,A,3402.6781,N,11829.6910,W,0.00,187.96,200516,,,A*70
$GPRMC,172855.000,A,3402.6781,N,11829.6910,W,0.00,187.96,200516,,,A*71
$GPRMC,172856.000,A,3402.6781,N,11829.6910,W,0.00,187.96,200516,,,A*72
$GPRMC,172857.000,A,3402.6781,N,11829.6910,W,0.00,187.96,200516,,,A*73
$GPRMC,172858.000,A,3402.6781,N,11829.6910,W,0.00,187.96,200516,,,A*7C
$GPRMC,172859.000,A,3402.6781,N,11829.6911,W,0.00,187.96,200516,,,A*7C
$GPRMC,172900.000,A,3402.6781,N,11829.6911,W,0.00,187.96,200516,,,A*71
$GPRMC,172901.000,A,3402.6781,N,11829.6911,W,0.00,187.96,200516,,,A*70
$GPRMC,172902.000,A,3402.6781,N,11829.6911,W,0.00,187.96,200516,,,A*73
$GPRMC,172903.000,A,3402.6781,N,11829.6911,W,0.00,187.96,200516,,,A*72
$GPRMC,172904.000,A,3402.6781,N,11829.6911,W,0.00,187.96,200516,,,A*75
$GPRMC,172905.000,A,3402.6781,N,11829.6911,W,0.00,187.96,200516,,,A*74
$GPRMC,172906.000,A,3402.6781,N,11829.6911,W,0.00,187.96,200516,,,A*77
$GPRMC,172907.000,A,3402.6781,N,11829.6911,W,0.00,187.96,200516,,,A*76
$GPRMC,172908.000,A,3402.6781,N,11829.6911,W,0.00,187.96,200516,,,A*79
$GPRMC,172909.000,A,3402.6781,N,11829.6911,W,0.00,187.96,200516,,,A*78
$GPRMC,172910.000,A,3402.6781,N,11829.6911,W,0.00,187.96,200516,,,A*70
$GPRMC,172911.000,A,3402.6781,N,11829.6911,W,0.00,187.96,200516,,,A*71
$GPRMC,172912.000,A,3402.6781,N,11829.6911,W,0.00,187.96,200516,,,A*72
$GPRMC,172913.000,A,3402.6781,N,11829.6911,W,0.00,187.96,200516,,,A*73
$GPRMC,172914.000,A,3402.6781,N,11829.6911,W,0.00,187.96,200516,,,A*74
$GPRMC,172915.000,A,3402.6781,N,11829.6911,W,0.00,187.96,200516,,,A*75
$GPRMC,172916.000,A,3402.6781,N,11829.6911,W,0.00,187.96,200516,,,A*76
$GPRMC,172917.000,A,3402.6781,N,11829.6911,W,0.00,187.96,200516,,,A*77
$GPRMC,172918.000,A,3402.6781,N,11829.6911,W,0.00,187.96,200516,,,A*78
$GPRMC,172919.000,A,3402.6782,N,11829.6911,W,0.00,187.96,200516,,,A*7A
$GPRMC,172920.000,A,3402.6782,N,11829.6911,W,0.00,187.96,200516,,,A*70
$GPRMC,172921.000,A,3402.6782,N,11829.6911,W,0.00,187.96,200516,,,A*71
$GPRMC,172922.000,A,3402.6782,N,11829.6911,W,0.00,187.96,200516,,,A*72
$GPRMC,172923.000,A,3402.6782,N,11829.6911,W,0.00,187.96,200516,,,A*73
$GPRMC,172924.000,A,3402.6782,N,11829.6911,W,0.00,187.96,200516,,,A*74
$GPRMC,172925.000,A,3402.6782,N,11829.6911,W,0.00,187.96,200516,,,A*75
$GPRMC,172926.000,A,3402.6782,N,11829.6911,W,0.00,187.96,200516,,,A*76
$GPRMC,172927.000,A,3402.6782,N,11829.6911,W,0.00,187.96,200516,,,A*77
$GPRMC,172928.000,A,3402.6782,N,11829.6911,W,0.00,187.96,200516,,,A*78
$GPRMC,172929.000,A,3402.6782,N,11829.6911,W,0.00,187.96,200516,,,A*79
$GPRMC,172930.000,A,3402.6782,N,11829.6911,W,0.00,187.96,200516,,,A*71
$GPRMC,172931.000,A,3402.6782,N,11829.6911,W,0.00,187.96,200516,,,A*70
$GPRMC,172932.000,A,3402.6782,N,11829.6911,W,0.00,187.96,200516,,,A*73
$GPRMC,172933.000,A,3402.6782,N,11829.6911,W,0.00,187.96,200516,,,A*72
$GPRMC,172934.000,A,3402.6782,N,11829.6911,W,0.00,187.96,200516,,,A*75
$GPRMC,172935.000,A,3402.6782,N,11829.6911,W,0.00,187.96,200516,,,A*74
$GPRMC,172936.000,A,3402.6782,N,11829.6911,W,0.00,187.96,200516,,,A*77
$GPRMC,172937.000,A,3402.6782,N,11829.6911,W,0.00,187.96,200516,,,A*76
$GPRMC,172938.000,A,3402.6782,N,11829.6911,W,0.00,187.96,200516,,,A*79
$GPRMC,172939.000,A,3402.6782,N,11829.6911,W,0.00,187.96,200516,,,A*78
$GPRMC,172940.000,A,3402.6782,N,11829.6911,W,0.00,187.96,200516,,,A*76
$GPRMC,172941.000,A,3402.6782,N,11829.6911,W,0.00,187.96,200516,,,A*77
$GPRMC,172942.000,A,3402.6782,N,11829.6911,W,0.00,187.96,200516,,,A*74
$GPRMC,172943.000,A,3402.6782,N,11829.6911,W,0.00,187.96,200516,,,A*75
$GPRMC,172944.000,A,3402.6782,N,11829.6911,W,0.00,187.96,200516,,,A*72
$GPRMC,172945.000,A,3402.6782,N,11829.6911,W,0.00,187.96,200516,,,A*73
$GPRMC,172946.000,A,3402.6782,N,11829.6911,W,0.00,187.96,200516,,,A*70
$GPRMC,172947.000,A,3402.6782,N,11829.6911,W,0.00,187.96,200516,,,A*71
$GPRMC,172948.000,A,3402.6782,N,11829.6911,W,0.00,187.96,200516,,,A*7E
$GPRMC,172949.000,A,3402.6782,N,11829.6911,W,0.00,187.96,200516,,,A*7F
$GPRMC,172950.000,A,3402.6782,N,11829.6911,W,0.00,187.96,200516,,,A*77
$GPRMC,172951.000,A,3402.6782,N,11829.6911,W,0.00,187.96,200516,,,A*76
$GPRMC,172952.000,A,3402.6782,N,11829.6911,W,0.00,187.96,200516,,,A*75
$GPRMC,172953.000,A,3402.6782,N,11829.6911,W,0.00,187.96,200516,,,A*74
$GPRMC,172954.000,A,3402.6782,N,11829.6911,W,0.00,187.96,200516,,,A*73
$GPRMC,172955.000,A,3402.6782,N,11829.6911,W,0.00,187.96,200516,,,A*72
$GPRMC,172956.000,A,3402.6782,N,11829.6911,W,0.00,187.96,200516,,,A*71
$GPRMC,172957.000,A,3402.6782,N,11829.6911,W,0.00,187.96,200516,,,A*70
$GPRMC,172958.000,A,3402.6782,N,11829.6911,W,0.00,187.96,200516,,,A*7F
$GPRMC,172959.000,A,3402.6782,N,11829.6911,W,0.00,187.96,200516,,,A*7E
$GPRMC,173000.000,A,3402.6782,N,11829.6911,W,0.00,187.96,200516,,,A*7A
$GPRMC,173001.000,A,3402.6782,N,11829.6911,W,0.00,187.96,200516,,,A*7B
$GPRMC,173002.000,A,3402.6782,N,11829.6911,W,0.00,187.96,200516,,,A*78
$GPRMC,173003.000,A,3402.6782,N,11829.6911,W,0.00,187.96,200516,,,A*79
$GPRMC,173004.000,A,3402.6782,N,11829.6911,W,0.00,187.96,200516,,,A*7E
$GPRMC,173005.000,A,3402.6782,N,11829.6911,W,0.00,187.96,200516,,,A*7F
$GPRMC,173006.000,A,3402.6783,N,11829.6911,W,0.00,187.96,200516,,,A*7D
$GPRMC,173007.000,A,3402.6783,N,11829.6911,W,0.00,187.96,200516,,,A*7C
$GPRMC,173008.000,A,3402.6783,N,11829.6911,W,0.00,187.96,200516,,,A*73
$GPRMC,173009.000,A,3402.6783,N,11829.6911,W,0.00,187.96,200516,,,A*72
$GPRMC,173010.000,A,3402.6783,N,11829.6911,W,0.00,187.96,200516,,,A*7A
$GPRMC,173011.000,A,3402.6783,N,11829.6911,W,0.00,187.96,200516,,,A*7B
$GPRMC,173012.000,A,3402.6783,N,11829.6911,W,0.00,187.96,200516,,,A*78
$GPRMC,173013.000,A,3402.6783,N,11829.6911,W,0.00,187.96,200516,,,A*79
$GPRMC,173014.000,A,3402.6783,N,11829.6911,W,0.00,187.96,200516,,,A*7E
$GPRMC,173015.000,A,3402.6783,N,11829.6911,W,0.00,187.96,200516,,,A*7F
$GPRMC,173016.000,A,3402.6783,N,11829.6911,W,0.00,187.96,200516,,,A*7C
$GPRMC,173017.000,A,3402.6783,N,11829.6911,W,0.00,187.96,200516,,,A*7D
$GPRMC,173018.000,A,3402.6783,N,11829.6911,W,0.00,187.96,200516,,,A*72
$GPRMC,173019.000,A,3402.6783,N,11829.6911,W,0.00,187.96,200516,,,A*73
$GPRMC,173020.000,A,3402.6783,N,11829.6911,W,0.00,187.96,200516,,,A*79
$GPRMC,173021.000,A,3402.6783,N,11829.6911,W,0.00,187.96,200516,,,A*78
$GPRMC,173022.000,A,3402.6783,N,11829.6911,W,0.00,187.96,200516,,,A*7B
$GPRMC,173023.000,A,3402.6783,N,11829.6911,W,0.00,187.96,200516,,,A*7A
$GPRMC,173024.000,A,3402.6783,N,11829.6911,W,0.00,187.96,200516,,,A*7D
$GPRMC,173025.000,A,3402.6783,N,11829.6911,W,0.00,187.96,200516,,,A*7C
$GPRMC,173026.000,A,3402.6783,N,11829.6911,W,0.00,187.96,200516,,,A*7F
$GPRMC,173027.000,A,3402.6783,N,11829.6911,W,0.00,187.96,200516,,,A*7E
$GPRMC,173028.000,A,3402.6783,N,11829.6911,W,0.00,187.96,200516,,,A*71
$GPRMC,173029.000,A,3402.6783,N,11829.6912,W,0.00,187.96,200516,,,A*73
$GPRMC,173030.000,A,3402.6783,N,11829.6912,W,0.00,187.96,200516,,,A*7B
$GPRMC,173031.000,A,3402.6783,N,11829.6912,W,0.00,187.96,200516,,,A*7A
$GPRMC,173032.000,A,3402.6783,N,11829.6912,W,0.00,187.96,200516,,,A*79
$GPRMC,173033.000,A,3402.6783,N,11829.6912,W,0.00,187.96,200516,,,A*78
$GPRMC,173034.000,A,3402.6783,N,11829.6912,W,0.00,187.96,200516,,,A*7F
$GPRMC,173035.000,A,3402.6783,N,11829.6912,W,0.00,187.96,200516,,,A*7E
$GPRMC,173036.000,A,3402.6783,N,11829.6912,W,0.00,187.96,200516,,,A*7D
$GPRMC,173037.000,A,3402.6783,N,11829.6912,W,0.00,187.96,200516,,,A*7C
$GPRMC,173038.000,A,3402.6783,N,11829.6912,W,0.00,187.96,200516,,,A*73
$GPRMC,173039.000,A,3402.6783,N,11829.6912,W,0.00,187.96,200516,,,A*72
$GPRMC,173040.000,A,3402.6783,N,11829.6912,W,0.00,187.96,200516,,,A*7C
$GPRMC,173041.000,A,3402.6783,N,11829.6912,W,0.00,187.96,200516,,,A*7D
$GPRMC,173042.000,A,3402.6783,N,11829.6912,W,0.00,187.96,200516,,,A*7E
$GPRMC,173043.000,A,3402.6783,N,11829.6912,W,0.00,187.96,200516,,,A*7F
$GPRMC,173044.000,A,3402.6783,N,11829.6912,W,0.00,187.96,200516,,,A*78
$GPRMC,173045.000,A,3402.6783,N,11829.6912,W,0.00,187.96,200516,,,A*79
$GPRMC,173046.000,A,3402.6783,N,11829.6912,W,0.00,187.96,200516,,,A*7A
$GPRMC,173047.000,A,3402.6783,N,11829.6912,W,0.00,187.96,200516,,,A*7B
$GPRMC,173048.000,A,3402.6783,N,11829.6912,W,0.00,187.96,200516,,,A*74
$GPRMC,173049.000,A,3402.6783,N,11829.6912,W,0.00,187.96,200516,,,A*75
$GPRMC,173050.000,A,3402.6783,N,11829.6912,W,0.00,187.96,200516,,,A*7D
$GPRMC,173051.000,A,3402.6783,N,11829.6912,W,0.00,187.96,200516,,,A*7C
$GPRMC,173052.000,A,3402.6783,N,11829.6912,W,0.00,187.96,200516,,,A*7F
$GPRMC,173053.000,A,3402.6783,N,11829.6912,W,0.00,187.96,200516,,,A*7E
$GPRMC,173054.000,A,3402.6783,N,11829.6912,W,0.00,187.96,200516,,,A*79
$GPRMC,173055.000,A,3402.6783,N,11829.6912,W,0.00,187.96,200516,,,A*78
$GPRMC,173056.000,A,3402.6783,N,11829.6912,W,0.00,187.96,200516,,,A*7B
$GPRMC,173057.000,A,3402.6783,N,11829.6912,W,0.00,187.96,200516,,,A*7A
$GPRMC,173058.000,A,3402.6783,N,11829.6912,W,0.00,187.96,200516,,,A*75
$GPRMC,173059.000,A,3402.6783,N,11829.6912,W,0.00,187.96,200516,,,A*74
$GPRMC,173100.000,A,3402.6783,N,11829.6912,W,0.00,187.96,200516,,,A*79
$GPRMC,173101.000,A,3402.6783,N,11829.6912,W,0.00,187.96,200516,,,A*78
$GPRMC,173102.000,A,3402.6783,N,11829.6912,W,0.00,187.96,200516,,,A*7B
$GPRMC,173103.000,A,3402.6783,N,11829.6912,W,0.00,187.96,200516,,,A*7A
$GPRMC,173104.000,A,3402.6783,N,11829.6912,W,0.00,187.96,200516,,,A*7D
$GPRMC,173105.000,A,3402.6783,N,11829.6912,W,0.00,187.96,200516,,,A*7C
$GPRMC,173106.000,A,3402.6783,N,11829.6912,W,0.00,187.96,200516,,,A*7F
$GPRMC,173107.000,A,3402.6783,N,11829.6912,W,0.00,187.96,200516,,,A*7E
$GPRMC,173108.000,A,3402.6783,N,11829.6912,W,0.00,187.96,200516,,,A*71
$GPRMC,173109.000,A,3402.6783,N,11829.6912,W,0.00,187.96,200516,,,A*70
$GPRMC,173110.000,A,3402.6783,N,11829.6912,W,0.00,187.96,200516,,,A*78
$GPRMC,173111.000,A,3402.6783,N,11829.6912,W,0.00,187.96,200516,,,A*79
$GPRMC,173112.000,A,3402.6783,N,11829.6912,W,0.00,187.96,200516,,,A*7A
$GPRMC,173113.000,A,3402.6783,N,11829.6912,W,0.14,187.96,200516,,,A*7E
$GPRMC,173114.000,A,3402.6783,N,11829.6912,W,0.00,187.96,200516,,,A*7C
$GPRMC,173115.000,A,3402.6783,N,11829.6912,W,0.00,187.96,200516,,,A*7D
$GPRMC,173116.000,A,3402.6783,N,11829.6912,W,0.00,187.96,200516,,,A*7E
$GPRMC,173117.000,A,3402.6783,N,11829.6912,W,0.00,187.96,200516,,,A*7F
$GPRMC,173118.000,A,3402.6783,N,11829.6912,W,0.00,187.96,200516,,,A*70
$GPRMC,173119.000,A,3402.6783,N,11829.6912,W,0.00,187.96,200516,,,A*71
$GPRMC,173120.000,A,3402.6783,N,11829.6912,W,0.00,187.96,200516,,,A*7B
$GPRMC,173121.000,A,3402.6783,N,11829.6912,W,0.00,187.96,200516,,,A*7A
$GPRMC,173122.000,A,3402.6783,N,11829.6912,W,0.00,187.96,200516,,,A*79
$GPRMC,173123.000,A,3402.6783,N,11829.6912,W,0.00,187.96,200516,,,A*78
$GPRMC,173124.000,A,3402.6783,N,11829.6912,W,0.00,187.96,200516,,,A*7F
$GPRMC,173125.000,A,3402.6783,N,11829.6912,W,0.00,187.96,200516,,,A*7E
$GPRMC,173126.000,A,3402.6783,N,11829.6912,W,0.00,187.96,200516,,,A*7D
$GPRMC,173127.000,A,3402.6783,N,11829.6912,W,0.00,187.96,200516,,,A*7C
$GPRMC,173128.000,A,3402.6783,N,11829.6912,W,0.00,187.96,200516,,,A*73
$GPRMC,173129.000,A,3402.6783,N,11829.6912,W,0.00,187.96,200516,,,A*72
$GPRMC,173130.000,A,3402.6783,N,11829.6912,W,0.00,187.96,200516,,,A*7A
$GPRMC,173131.000,A,3402.6783,N,11829.6912,W,0.00,187.96,200516,,,A*7B
$GPRMC,173132.000,A,3402.6783,N,11829.6912,W,0.00,187.96,200516,,,A*78
$GPRMC,173133.000,A,3402.6783,N,11829.6912,W,0.00,187.96,200516,,,A*79
$GPRMC,173134.000,A,3402.6783,N,11829.6912,W,0.00,187.96,200516,,,A*7E
$GPRMC,173135.000,A,3402.6783,N,11829.6912,W,0.00,187.96,200516,,,A*7F
$GPRMC,173136.000,A,3402.6783,N,11829.6913,W,0.00,187.96,200516,,,A*7D
$GPRMC,173137.000,A,3402.6783,N,11829.6913,W,0.00,187.96,200516,,,A*7C
$GPRMC,173138.000,A,3402.6783,N,11829.6913,W,0.00,187.96,200516,,,A*73
$GPRMC,173139.000,A,3402.6783,N,11829.6913,W,0.00,187.96,200516,,,A*72
$GPRMC,173140.000,A,3402.6783,N,11829.6913,W,0.00,187.96,200516,,,A*7C
$GPRMC,173141.000,A,3402.6783,N,11829.6913,W,0.00,187.96,200516,,,A*7D
$GPRMC,173142.000,A,3402.6783,N,11829.6913,W,0.00,187.96,200516,,,A*7E
$GPRMC,173143.000,A,3402.6783,N,11829.6913,W,0.00,187.96,200516,,,A*7F
$GPRMC,173144.000,A,3402.6783,N,11829.6913,W,0.00,187.96,200516,,,A*78
$GPRMC,173145.000,A,3402.6783,N,11829.6913,W,0.00,187.96,200516,,,A*79
$GPRMC,173146.000,A,3402.6783,N,11829.6913,W,0.00,187.96,200516,,,A*7A
$GPRMC,173147.000,A,3402.6783,N,11829.6913,W,0.00,187.96,200516,,,A*7B
$GPRMC,173148.000,A,3402.6783,N,11829.6913,W,0.00,187.96,200516,,,A*74
$GPRMC,173149.000,A,3402.6783,N,11829.6913,W,0.00,187.96,200516,,,A*75
$GPRMC,173150.000,A,3402.6783,N,11829.6913,W,0.00,187.96,200516,,,A*7D
$GPRMC,173151.000,A,3402.6783,N,11829.6912,W,0.00,187.96,200516,,,A*7D
$GPRMC,173152.000,A,3402.6783,N,11829.6912,W,0.00,187.96,200516,,,A*7E
$GPRMC,173153.000,A,3402.6783,N,11829.6912,W,0.00,187.96,200516,,,A*7F
$GPRMC,173154.000,A,3402.6783,N,11829.6912,W,0.00,187.96,200516,,,A*78
$GPRMC,173155.000,A,3402.6783,N,11829.6912,W,0.00,187.96,200516,,,A*79
$GPRMC,173156.000,A,3402.6783,N,11829.6912,W,0.00,187.96,200516,,,A*7A
$GPRMC,173157.000,A,3402.6783,N,11829.6912,W,0.00,187.96,200516,,,A*7B
$GPRMC,173158.000,A,3402.6783,N,11829.6912,W,0.00,187.96,200516,,,A*74
$GPRMC,173159.000,A,3402.6783,N,11829.6912,W,0.00,187.96,200516,,,A*75
$GPRMC,173200.000,A,3402.6783,N,11829.6912,W,0.00,187.96,200516,,,A*7A
$GPRMC,173201.000,A,3402.6783,N,11829.6912,W,0.00,187.96,200516,,,A*7B
$GPRMC,173202.000,A,3402.6783,N,11829.6912,W,0.00,187.96,200516,,,A*78
$GPRMC,173203.000,A,3402.6783,N,11829.6912,W,0.00,187.96,200516,,,A*79
$GPRMC,173204.000,A,3402.6783,N,11829.6912,W,0.00,187.96,200516,,,A*7E
$GPRMC,173205.000,A,3402.6783,N,11829.6912,W,0.00,187.96,200516,,,A*7F
$GPRMC,173206.000,A,3402.6783,N,11829.6912,W,0.00,187.96,200516,,,A*7C
$GPRMC,173207.000,A,3402.6783,N,11829.6912,W,0.00,187.96,200516,,,A*7D
$GPRMC,173208.000,A,3402.6783,N,11829.6912,W,0.00,187.96,200516,,,A*72
$GPRMC,173209.000,A,3402.6783,N,11829.6912,W,0.00,187.96,200516,,,A*73
$GPRMC,173210.000,A,3402.6783,N,11829.6912,W,0.00,187.96,200516,,,A*7B
$GPRMC,173211.000,A,3402.6783,N,11829.6912,W,0.00,187.96,200516,,,A*7A
$GPRMC,173212.000,A,3402.6783,N,11829.6912,W,0.00,187.96,200516,,,A*79
$GPRMC,173213.000,A,3402.6783,N,11829.6912,W,0.00,187.96,200516,,,A*78
$GPRMC,173214.000,A,3402.6783,N,11829.6912,W,0.00,187.96,200516,,,A*7F
$GPRMC,173215.000,A,3402.6783,N,11829.6912,W,0.00,187.96,200516,,,A*7E
$GPRMC,173216.000,A,3402.6783,N,11829.6912,W,0.00,187.96,200516,,,A*7D
$GPRMC,173217.000,A,3402.6783,N,11829.6912,W,0.00,187.96,200516,,,A*7C
$GPRMC,173218.000,A,3402.6783,N,11829.6912,W,0.00,187.96,200516,,,A*73
$GPRMC,173219.000,A,3402.6783,N,11829.6912,W,0.00,187.96,200516,,,A*72
$GPRMC,173220.000,A,3402.6782,N,11829.6912,W,0.12,187.96,200516,,,A*7A
$GPRMC,173221.000,A,3402.6782,N,11829.6912,W,0.00,187.96,200516,,,A*78
$GPRMC,173222.000,A,3402.6782,N,11829.6912,W,0.00,187.96,200516,,,A*7B
$GPRMC,173223.000,A,3402.6782,N,11829.6912,W,0.00,187.96,200516,,,A*7A
$GPRMC,173224.000,A,3402.6782,N,11829.6912,W,0.00,187.96,200516,,,A*7D
$GPRMC,173225.000,A,3402.6782,N,11829.6912,W,0.00,187.96,200516,,,A*7C
$GPRMC,173226.000,A,3402.6782,N,11829.6912,W,0.00,187.96,200516,,,A*7F
$GPRMC,173227.000,A,3402.6782,N,11829.6912,W,0.00,187.96,200516,,,A*7E
$GPRMC,173228.000,A,3402.6782,N,11829.6912,W,0.00,187.96,200516,,,A*71
$GPRMC,173229.000,A,3402.6782,N,11829.6912,W,0.00,187.96,200516,,,A*70
$GPRMC,173230.000,A,3402.6782,N,11829.6912,W,0.00,187.96,200516,,,A*78
$GPRMC,173231.000,A,3402.6782,N,11829.6912,W,0.00,187.96,200516,,,A*79
$GPRMC,173232.000,A,3402.6782,N,11829.6912,W,0.00,187.96,200516,,,A*7A
$GPRMC,173233.000,A,3402.6782,N,11829.6912,W,0.00,187.96,200516,,,A*7B
$GPRMC,173234.000,A,3402.6783,N,11829.6912,W,0.10,187.96,200516,,,A*7C
$GPRMC,173235.000,A,3402.6783,N,11829.6912,W,0.00,187.96,200516,,,A*7C
$GPRMC,173236.000,A,3402.6783,N,11829.6912,W,0.00,187.96,200516,,,A*7F
$GPRMC,173237.000,A,3402.6784,N,11829.6912,W,0.00,187.96,200516,,,A*79
$GPRMC,173238.000,A,3402.6784,N,11829.6912,W,0.00,187.96,200516,,,A*76
$GPRMC,173239.000,A,3402.6784,N,11829.6912,W,0.00,187.96,200516,,,A*77
$GPRMC,173240.000,A,3402.6784,N,11829.6912,W,0.00,187.96,200516,,,A*79
$GPRMC,173241.000,A,3402.6785,N,11829.6913,W,0.22,187.96,200516,,,A*78
$GPRMC,173242.000,A,3402.6785,N,11829.6913,W,0.00,187.96,200516,,,A*7B
$GPRMC,173243.000,A,3402.6785,N,11829.6913,W,0.00,187.96,200516,,,A*7A
$GPRMC,173244.000,A,3402.6785,N,11829.6913,W,0.00,187.96,200516,,,A*7D
$GPRMC,173245.000,A,3402.6785,N,11829.6913,W,0.00,187.96,200516,,,A*7C
$GPRMC,173246.000,A,3402.6785,N,11829.6913,W,0.00,187.96,200516,,,A*7F
$GPRMC,173247.000,A,3402.6785,N,11829.6913,W,0.00,187.96,200516,,,A*7E
$GPRMC,173248.000,A,3402.6785,N,11829.6913,W,0.15,187.96,200516,,,A*75
$GPRMC,173249.000,A,3402.6786,N,11829.6913,W,0.00,187.96,200516,,,A*73
$GPRMC,173250.000,A,3402.6786,N,11829.6913,W,0.00,187.96,200516,,,A*7B
$GPRMC,173251.000,A,3402.6786,N,11829.6913,W,0.00,187.96,200516,,,A*7A
$GPRMC,173252.000,A,3402.6786,N,11829.6913,W,0.00,187.96,200516,,,A*79
$GPRMC,173253.000,A,3402.6786,N,11829.6913,W,0.00,187.96,200516,,,A*78
$GPRMC,173254.000,A,3402.6786,N,11829.6913,W,0.00,187.96,200516,,,A*7F
$GPRMC,173255.000,A,3402.6786,N,11829.6913,W,0.00,187.96,200516,,,A*7E
$GPRMC,173256.000,A,3402.6786,N,11829.6913,W,0.00,187.96,200516,,,A*7D
$GPRMC,173257.000,A,3402.6786,N,11829.6913,W,0.00,187.96,200516,,,A*7C
$GPRMC,173258.000,A,3402.6786,N,11829.6913,W,0.00,187.96,200516,,,A*73
$GPRMC,173259.000,A,3402.6786,N,11829.6913,W,0.00,187.96,200516,,,A*72
$GPRMC,173300.000,A,3402.6786,N,11829.6913,W,0.00,187.96,200516,,,A*7F
$GPRMC,173301.000,A,3402.6786,N,11829.6913,W,0.00,187.96,200516,,,A*7E
$GPRMC,173302.000,A,3402.6786,N,11829.6913,W,0.00,187.96,200516,,,A*7D
$GPRMC,173303.000,A,3402.6786,N,11829.6913,W,0.00,187.96,200516,,,A*7C
$GPRMC,173304.000,A,3402.6786,N,11829.6913,W,0.00,187.96,200516,,,A*7B
$GPRMC,173305.000,A,3402.6786,N,11829.6913,W,0.00,187.96,200516,,,A*7A
$GPRMC,173306.000,A,3402.6786,N,11829.6913,W,0.00,187.96,200516,,,A*79
$GPRMC,173307.000,A,3402.6786,N,11829.6913,W,0.00,187.96,200516,,,A*78
$GPRMC,173308.000,A,3402.6786,N,11829.6913,W,0.00,187.96,200516,,,A*77
$GPRMC,173309.000,A,3402.6786,N,11829.6913,W,0.00,187.96,200516,,,A*76
$GPRMC,173310.000,A,3402.6786,N,11829.6913,W,0.00,187.96,200516,,,A*7E
$GPRMC,173311.000,A,3402.6786,N,11829.6913,W,0.00,187.96,200516,,,A*7F
$GPRMC,173312.000,A,3402.6786,N,11829.6913,W,0.00,187.96,200516,,,A*7C
$GPRMC,173313.000,A,3402.6786,N,11829.6913,W,0.00,187.96,200516,,,A*7D
$GPRMC,173314.000,A,3402.6786,N,11829.6913,W,0.00,187.96,200516,,,A*7A
$GPRMC,173315.000,A,3402.6786,N,11829.6913,W,0.00,187.96,200516,,,A*7B
$GPRMC,173316.000,A,3402.6786,N,11829.6913,W,0.00,187.96,200516,,,A*78
$GPRMC,173317.000,A,3402.6786,N,11829.6913,W,0.00,187.96,200516,,,A*79
$GPRMC,173318.000,A,3402.6786,N,11829.6913,W,0.00,187.96,200516,,,A*76
$GPRMC,173319.000,A,3402.6786,N,11829.6913,W,0.00,187.96,200516,,,A*77
$GPRMC,173320.000,A,3402.6786,N,11829.6913,W,0.00,187.96,200516,,,A*7D
$GPRMC,173321.000,A,3402.6786,N,11829.6913,W,0.00,187.96,200516,,,A*7C
$GPRMC,173322.000,A,3402.6786,N,11829.6913,W,0.00,187.96,200516,,,A*7F
$GPRMC,173323.000,A,3402.6786,N,11829.6913,W,0.00,187.96,200516,,,A*7E
$GPRMC,173324.000,A,3402.6786,N,11829.6913,W,0.00,187.96,200516,,,A*79
$GPRMC,173325.000,A,3402.6786,N,11829.6913,W,0.00,187.96,200516,,,A*78
$GPRMC,173326.000,A,3402.6786,N,11829.6913,W,0.00,187.96,200516,,,A*7B
$GPRMC,173327.000,A,3402.6786,N,11829.6913,W,0.00,187.96,200516,,,A*7A
$GPRMC,173328.000,A,3402.6786,N,11829.6913,W,0.00,187.96,200516,,,A*75
$GPRMC,173329.000,A,3402.6786,N,11829.6913,W,0.00,187.96,200516,,,A*74
$GPRMC,173330.000,A,3402.6786,N,11829.6913,W,0.00,187.96,200516,,,A*7C
$GPRMC,173331.000,A,3402.6786,N,11829.6913,W,0.00,187.96,200516,,,A*7D
$GPRMC,173332.000,A,3402.6786,N,11829.6913,W,0.00,187.96,200516,,,A*7E
$GPRMC,173333.000,A,3402.6786,N,11829.6913,W,0.00,187.96,200516,,,A*7F
$GPRMC,173334.000,A,3402.6786,N,11829.6913,W,0.00,187.96,200516,,,A*78
$GPRMC,173335.000,A,3402.6786,N,11829.6913,W,0.00,187.96,200516,,,A*79
$GPRMC,173336.000,A,3402.6786,N,11829.6913,W,0.00,187.96,200516,,,A*7A
$GPRMC,173337.000,A,3402.6786,N,11829.6913,W,0.00,187.96,200516,,,A*7B
$GPRMC,173338.000,A,3402.6786,N,11829.6913,W,0.00,187.96,200516,,,A*74
$GPRMC,173339.000,A,3402.6786,N,11829.6913,W,0.00,187.96,200516,,,A*75
$GPRMC,173340.000,A,3402.6786,N,11829.6913,W,0.00,187.96,200516,,,A*7B
$GPRMC,173341.000,A,3402.6786,N,11829.6913,W,0.00,187.96,200516,,,A*7A
$GPRMC,173342.000,A,3402.6786,N,11829.6913,W,0.00,187.96,200516,,,A*79
