$GPGSA,M,1,,,,,,,,,,,,,,,*12
$GPRMC,025140.450,V,,,,,,,050516,,,N*49
$GPGGA,025140.650,,,,,0,00,,,M,0.0,M,,0000*57
$GPGSA,M,1,,,,,,,,,,,,,,,*12
$GPGSV,3,1,09,02,66,043,43,05,28,140,36,12,75,017,46,19,11,066,27*77
$GPGSV,3,2,09,24,34,204,22,25,43,323,39,29,27,283,31,06,20,041,*7A
$GPGSV,3,3,09,20,07,182,*4E
$GPRMC,025140.650,V,,,,,,,050516,,,N*4B
$GPGGA,025141.650,,,,,0,00,,,M,0.0,M,,0000*56
$GPGSA,M,1,,,,,,,,,,,,,,,*12
$GPRMC,025141.650,V,,,,,,,050516,,,N*4A
$GPGGA,025142.645,,,,,0,00,,,M,0.0,M,,0000*51
$GPGSA,M,1,,,,,,,,,,,,,,,*12
$GPRMC,025142.645,V,,,,,,,050516,,,N*4D
$GPGGA,025143.645,,,,,0,00,,,M,0.0,M,,0000*50
$GPGSA,M,1,,,,,,,,,,,,,,,*12
$GPRMC,025143.645,V,,,,,,,050516,,,N*4C
$GPGGA,025144.650,,,,,0,00,,,M,0.0,M,,0000*53
$GPGSA,M,1,,,,,,,,,,,,,,,*12
$GPRMC,025144.650,V,,,,,,,050516,,,N*4F
$GPGGA,025145.650,,,,,0,00,,,M,0.0,M,,0000*52
$GPGSA,M,1,,,,,,,,,,,,,,,*12
$GPGSV,3,1,09,02,66,043,41,05,28,140,36,12,75,018,44,19,10,067,28*77
$GPGSV,3,2,09,24,34,204,27,25,43,323,40,29,27,283,33,06,20,041,*73
$GPGSV,3,3,09,20,07,182,*4E
$GPRMC,025145.650,V,,,,,,,050516,,,N*4E
$GPGGA,025146.650,,,,,0,00,,,M,0.0,M,,0000*51
$GPGSA,M,1,,,,,,,,,,,,,,,*12
$GPRMC,025146.650,V,,,,,,,050516,,,N*4D
$GPGGA,025147.650,,,,,0,00,,,M,0.0,M,,0000*50
$GPGSA,M,1,,,,,,,,,,,,,,,*12
$GPRMC,025147.650,V,,,,,,,050516,,,N*4C
$GPGGA,025148.645,,,,,0,00,,,M,0.0,M,,0000*5B
$GPGSA,M,1,,,,,,,,,,,,,,,*12
$GPRMC,025148.645,V,,,,,,,050516,,,N*47
$GPGGA,025149.646,,,,,0,00,,,M,0.0,M,,0000*59
$GPGSA,M,1,,,,,,,,,,,,,,,*12
$GPRMC,025149.646,V,,,,,,,050516,,,N*45
$GPGGA,025150.650,,,,,0,00,,,M,0.0,M,,0000*56
$GPGSA,M,1,,,,,,,,,,,,,,,*12
$GPGSV,3,1,09,02,66,043,35,05,28,140,28,06,20,041,22,12,75,018,45*79
$GPGSV,3,2,09,19,10,067,28,24,34,204,25,25,43,323,35,29,27,283,19*78
$GPGSV,3,3,09,20,07,182,*4E
$GPRMC,025150.650,V,,,,,,,050516,,,N*4A
$GPGGA,025151.650,,,,,0,00,,,M,0.0,M,,0000*57
$GPGSA,M,1,,,,,,,,,,,,,,,*12
$GPRMC,025151.650,V,,,,,,,050516,,,N*4B
$GPGGA,025152.650,,,,,0,00,,,M,0.0,M,,0000*54
$GPGSA,M,1,,,,,,,,,,,,,,,*12
$GPRMC,025152.650,V,,,,,,,050516,,,N*48
$GPGGA,025153.650,,,,,0,00,,,M,0.0,M,,0000*55
$GPGSA,M,1,,,,,,,,,,,,,,,*12
$GPRMC,025153.650,V,,,,,,,050516,,,N*49
$GPGGA,025154.646,,,,,0,00,,,M,0.0,M,,0000*55
$GPGSA,M,1,,,,,,,,,,,,,,,*12
$GPRMC,025154.646,V,,,,,,,050516,,,N*49
$GPGGA,025155.646,,,,,0,00,,,M,0.0,M,,0000*54
$GPGSA,M,1,,,,,,,,,,,,,,,*12
$GPGSV,3,1,09,02,66,043,36,05,28,140,28,06,20,041,28,12,75,018,46*73
$GPGSV,3,2,09,19,10,067,29,24,34,204,25,25,43,323,36,29,27,283,31*70
$GPGSV,3,3,09,20,07,182,*4E
$GPRMC,025155.646,V,,,,,,,050516,,,N*48
$GPGGA,025156.650,,,,,0,00,,,M,0.0,M,,0000*50
$GPGSA,M,1,,,,,,,,,,,,,,,*12
$GPRMC,025156.650,V,,,,,,,050516,,,N*4C
$GPGGA,025157.650,,,,,0,00,,,M,0.0,M,,0000*51
$GPGSA,M,1,,,,,,,,,,,,,,,*12
$GPRMC,025157.650,V,,,,,,,050516,,,N*4D
$GPGGA,025158.650,,,,,0,00,,,M,0.0,M,,0000*5E
$GPGSA,M,1,,,,,,,,,,,,,,,*12
$GPRMC,025158.650,V,,,,,,,050516,,,N*42
$GPGGA,025159.650,,,,,0,00,,,M,0.0,M,,0000*5F
$GPGSA,M,1,,,,,,,,,,,,,,,*12
$GPRMC,025159.650,V,,,,,,,050516,,,N*43
$GPGGA,025200.646,,,,,0,00,,,M,0.0,M,,0000*57
$GPGSA,M,1,,,,,,,,,,,,,,,*12
$GPGSV,3,1,09,02,66,043,45,05,28,140,28,06,20,041,34,12,75,018,42*7E
$GPGSV,3,2,09,19,10,067,30,24,34,204,25,25,43,323,38,29,27,283,27*71
$GPGSV,3,3,09,20,07,182,*4E
$GPRMC,025200.646,V,,,,,,,050516,,,N*4B
$GPGGA,025201.646,,,,,0,00,,,M,0.0,M,,0000*56
$GPGSA,M,1,,,,,,,,,,,,,,,*12
$GPRMC,025201.646,V,,,,,,,050516,,,N*4A
$GPGGA,025202.650,,,,,0,00,,,M,0.0,M,,0000*52
$GPGSA,M,1,,,,,,,,,,,,,,,*12
$GPRMC,025202.650,V,,,,,,,050516,,,N*4E
$GPGGA,025203.650,3402.6804,N,11829.6976,W,1,04,4.3,104.4,M,-33.9,M,,0000*6F
$GPGSA,M,3,12,24,06,19,,,,,,,,,5.8,4.3,3.9*35
$GPRMC,025203.650,A,3402.6804,N,11829.6976,W,3.98,317.11,050516,,,A*7B
$GPGGA,025204.646,3402.6858,N,11829.7068,W,1,04,4.3,90.9,M,-33.9,M,,0000*50
$GPGSA,M,3,12,06,24,19,,,,,,,,,5.8,4.3,3.9*35
$GPRMC,025204.646,A,3402.6858,N,11829.7068,W,1.79,316.71,050516,,,A*7F
$GPGGA,025205.646,3402.6848,N,11829.7060,W,1,04,4.3,91.1,M,-33.9,M,,0000*51
$GPGSA,M,3,12,06,24,19,,,,,,,,,5.8,4.3,3.9*35
$GPGSV,3,1,10,12,79,339,43,06,28,043,31,24,27,213,24,19,19,071,25*74
$GPGSV,3,2,10,02,75,034,46,05,30,151,27,25,41,318,38,29,21,284,37*7B
$GPGSV,3,3,10,46,45,145,,20,03,189,*7A
$GPRMC,025205.646,A,3402.6848,N,11829.7060,W,2.41,316.57,050516,,,A*7B
$GPGGA,025206.646,3402.6860,N,11829.7062,W,1,04,4.3,93.7,M,-33.9,M,,0000*5E
$GPGSA,M,3,12,06,24,19,,,,,,,,,5.8,4.3,3.9*35
$GPRMC,025206.646,A,3402.6860,N,11829.7062,W,2.68,315.19,050516,,,A*72
$GPGGA,025207.646,3402.6887,N,11829.7105,W,1,04,4.3,90.3,M,-33.9,M,,0000*51
$GPGSA,M,3,12,06,24,19,,,,,,,,,5.8,4.3,3.9*35
$GPRMC,025207.646,A,3402.6887,N,11829.7105,W,4.15,313.58,050516,,,A*75
$GPGGA,025208.646,3402.6887,N,11829.7104,W,1,04,4.3,91.5,M,-33.9,M,,0000*58
$GPGSA,M,3,12,06,24,19,,,,,,,,,5.8,4.3,3.8*34
$GPRMC,025208.646,A,3402.6887,N,11829.7104,W,3.69,311.58,050516,,,A*75
$GPGGA,025209.646,3402.6899,N,11829.7127,W,1,04,4.3,90.2,M,-33.9,M,,0000*51
$GPGSA,M,3,12,06,24,19,,,,,,,,,5.8,4.3,3.8*34
$GPRMC,025209.646,A,3402.6899,N,11829.7127,W,5.11,305.76,050516,,,A*7A
$GPGGA,025210.646,3402.6902,N,11829.7143,W,1,04,4.3,90.2,M,-33.9,M,,0000*58
$GPGSA,M,3,12,06,24,19,,,,,,,,,5.8,4.3,3.8*34
$GPGSV,3,1,10,12,79,339,45,06,28,043,40,24,27,213,24,19,19,071,25*74
$GPGSV,3,2,10,02,75,034,46,05,30,151,30,25,41,318,39,29,21,284,45*79
$GPGSV,3,3,10,46,45,145,44,20,03,189,*7A
$GPRMC,025210.646,A,3402.6902,N,11829.7143,W,4.49,300.41,050516,,,A*7E
$GPGGA,025211.650,3402.6890,N,11829.7136,W,1,04,4.3,92.5,M,-33.9,M,,0000*53
$GPGSA,M,3,12,06,24,19,,,,,,,,,5.8,4.3,3.8*34
$GPRMC,025211.650,A,3402.6890,N,11829.7136,W,3.93,293.54,050516,,,A*7F
$GPGGA,025212.650,3402.6881,N,11829.7147,W,1,04,4.3,92.6,M,-33.9,M,,0000*55
$GPGSA,M,3,12,06,24,19,,,,,,,,,5.8,4.3,3.8*34
$GPRMC,025212.650,A,3402.6881,N,11829.7147,W,3.79,284.77,050516,,,A*79
$GPGGA,025213.650,3402.6866,N,11829.7166,W,1,04,4.3,90.8,M,-33.9,M,,0000*52
$GPGSA,M,3,12,06,24,19,,,,,,,,,5.7,4.3,3.8*3B
$GPRMC,025213.650,A,3402.6866,N,11829.7166,W,4.40,272.54,050516,,,A*77
$GPGGA,025214.646,3402.6852,N,11829.7190,W,1,04,4.3,88.9,M,-33.9,M,,0000*54
$GPGSA,M,3,12,06,24,19,,,,,,,,,5.7,4.3,3.8*3B
$GPRMC,025214.646,A,3402.6852,N,11829.7190,W,5.40,258.65,050516,,,A*72
$GPGGA,025215.650,3402.6831,N,11829.7208,W,1,04,4.3,88.0,M,-33.9,M,,0000*5C
$GPGSA,M,3,12,06,24,19,,,,,,,,,5.7,4.3,3.8*3B
$GPGSV,3,1,10,12,79,339,46,06,28,043,37,24,27,213,38,19,19,072,27*7B
$GPGSV,3,2,10,02,75,034,39,05,30,151,34,25,41,318,40,29,21,284,35*7C
$GPGSV,3,3,10,46,45,145,27,20,03,189,*7F
$GPRMC,025215.650,A,3402.6831,N,11829.7208,W,6.44,245.31,050516,,,A*79
$GPGGA,025216.650,3402.6812,N,11829.7234,W,1,04,4.3,86.8,M,-33.9,M,,0000*57
$GPGSA,M,3,12,06,24,19,,,,,,,,,5.7,4.3,3.8*3B
$GPRMC,025216.650,A,3402.6812,N,11829.7234,W,7.68,235.15,050516,,,A*7A
$GPGGA,025217.650,3402.6790,N,11829.7263,W,1,04,4.3,85.7,M,-33.9,M,,0000*5D
$GPGSA,M,3,12,06,24,19,,,,,,,,,5.7,4.3,3.8*3B
$GPRMC,025217.650,A,3402.6790,N,11829.7263,W,8.89,228.06,050516,,,A*72
$GPGGA,025218.646,3402.6765,N,11829.7280,W,1,04,4.3,84.9,M,-33.9,M,,0000*5D
$GPGSA,M,3,12,06,24,19,,,,,,,,,5.7,4.3,3.8*3B
$GPRMC,025218.646,A,3402.6765,N,11829.7280,W,8.98,221.18,050516,,,A*7B
$GPGGA,025219.650,3402.6751,N,11829.7309,W,1,04,4.3,83.3,M,-33.9,M,,0000*51
$GPGSA,M,3,12,06,24,19,,,,,,,,,5.7,4.3,3.8*3B
$GPRMC,025219.650,A,3402.6751,N,11829.7309,W,8.61,219.33,050516,,,A*7E
$GPGGA,025220.650,3402.6743,N,11829.7348,W,1,04,4.3,81.3,M,-33.9,M,,0000*5F
$GPGSA,M,3,12,06,24,19,,,,,,,,,5.7,4.3,3.8*3B
$GPGSV,3,1,10,12,79,339,41,06,28,043,29,24,27,213,40,19,19,072,37*7D
$GPGSV,3,2,10,02,75,034,43,05,30,151,47,25,41,318,35,29,21,284,31*73
$GPGSV,3,3,10,46,45,145,30,20,03,189,*79
$GPRMC,025220.650,A,3402.6743,N,11829.7348,W,8.18,220.37,050516,,,A*72
$GPGGA,025221.650,3402.6729,N,11829.7372,W,1,04,4.3,80.3,M,-33.9,M,,0000*5A
$GPGSA,M,3,12,06,24,19,,,,,,,,,5.7,4.3,3.8*3B
$GPRMC,025221.650,A,3402.6729,N,11829.7372,W,7.46,221.03,050516,,,A*74
$GPGGA,025222.650,3402.6712,N,11829.7385,W,1,04,4.3,80.6,M,-33.9,M,,0000*5C
$GPGSA,M,3,12,06,24,19,,,,,,,,,5.7,4.3,3.8*3B
$GPRMC,025222.650,A,3402.6712,N,11829.7385,W,6.60,220.60,050516,,,A*76
$GPGGA,025223.650,3402.6704,N,11829.7403,W,1,04,4.3,80.0,M,-33.9,M,,0000*55
$GPGSA,M,3,12,06,24,19,,,,,,,,,5.7,4.3,3.8*3B
$GPRMC,025223.650,A,3402.6704,N,11829.7403,W,5.53,220.19,050516,,,A*74
$GPGGA,025224.650,3402.6697,N,11829.7420,W,1,04,4.3,78.9,M,-33.9,M,,0000*56
$GPGSA,M,3,12,06,24,19,,,,,,,,,5.7,4.3,3.8*3B
$GPRMC,025224.650,A,3402.6697,N,11829.7420,W,4.75,220.16,050516,,,A*73
$GPGGA,025225.650,3402.6687,N,11829.7431,W,1,04,4.3,78.6,M,-33.9,M,,0000*59
$GPGSA,M,3,12,06,24,19,,,,,,,,,5.7,4.3,3.8*3B
$GPGSV,3,1,10,12,79,339,43,06,28,043,33,24,27,213,35,19,19,072,31*70
$GPGSV,3,2,10,02,75,034,43,05,30,151,39,20,03,189,19,25,41,318,37*75
$GPGSV,3,3,10,29,21,284,33,46,45,145,41*78
$GPRMC,025225.650,A,3402.6687,N,11829.7431,W,4.27,219.35,050516,,,A*7F
$GPGGA,025226.650,3402.6674,N,11829.7432,W,1,04,4.3,78.6,M,-33.9,M,,0000*55
$GPGSA,M,3,12,06,24,19,,,,,,,,,5.7,4.3,3.8*3B
$GPRMC,025226.650,A,3402.6674,N,11829.7432,W,3.76,217.29,050516,,,A*73
$GPGGA,025227.650,3402.6652,N,11829.7416,W,1,05,3.8,80.0,M,-33.9,M,,0000*5A
$GPGSA,M,3,12,02,06,24,19,,,,,,,,4.8,3.8,2.9*3B
$GPRMC,025227.650,A,3402.6652,N,11829.7416,W,3.70,212.25,050516,,,A*7F
$GPGGA,025228.650,3402.6626,N,11829.7391,W,2,05,3.8,81.6,M,-33.9,M,2.6,0000*70
$GPGSA,M,3,12,02,06,24,19,,,,,,,,4.8,3.8,2.9*3B
$GPRMC,025228.650,A,3402.6626,N,11829.7391,W,3.79,202.20,050516,,,D*73
$GPGGA,025229.000,3402.6612,N,11829.7373,W,2,05,3.8,82.8,M,-33.9,M,3.0,0000*73
$GPGSA,M,3,12,02,06,24,19,,,,,,,,4.8,3.8,2.9*3B
$GPRMC,025229.000,A,3402.6612,N,11829.7373,W,4.31,190.30,050516,,,D*78
$GPGGA,025230.000,3402.6577,N,11829.7322,W,2,05,3.8,84.1,M,-33.9,M,4.0,0000*77
$GPGSA,M,3,12,02,06,24,19,,,,,,,,4.8,3.8,2.9*3B
$GPGSV,3,1,10,12,79,339,45,02,75,034,37,06,28,043,29,24,27,213,39*75
$GPGSV,3,2,10,19,19,072,36,05,30,151,33,20,03,189,19,25,41,318,37*7F
$GPGSV,3,3,10,29,21,284,31,46,45,145,33*7F
$GPRMC,025230.000,A,3402.6577,N,11829.7322,W,7.15,161.75,050516,,,D*7E
$GPGGA,025231.000,3402.6542,N,11829.7283,W,2,05,3.8,87.3,M,-33.9,M,5.0,0000*7A
$GPGSA,M,3,12,02,06,24,19,,,,,,,,4.8,3.8,2.9*3B
$GPRMC,025231.000,A,3402.6542,N,11829.7283,W,8.80,148.92,050516,,,D*72
$GPGGA,025232.000,3402.6515,N,11829.7253,W,2,05,3.8,88.3,M,-33.9,M,2.0,0000*7E
$GPGSA,M,3,12,02,06,24,19,,,,,,,,4.8,3.8,2.9*3B
$GPRMC,025232.000,A,3402.6515,N,11829.7253,W,10.43,142.21,050516,,,D*4A
$GPGGA,025233.000,3402.6490,N,11829.7223,W,2,05,3.8,89.2,M,-33.9,M,3.0,0000*75
$GPGSA,M,3,12,02,06,24,19,,,,,,,,4.8,3.8,2.9*3B
$GPRMC,025233.000,A,3402.6490,N,11829.7223,W,10.97,137.64,050516,,,D*4A
$GPGGA,025234.000,3402.6455,N,11829.7183,W,2,05,3.8,91.3,M,-33.9,M,4.0,0000*7D
$GPGSA,M,3,12,02,06,24,19,,,,,,,,4.8,3.8,2.9*3B
$GPRMC,025234.000,A,3402.6455,N,11829.7183,W,11.91,136.16,050516,,,D*4E
$GPGGA,025235.000,3402.6421,N,11829.7140,W,2,05,3.8,91.7,M,-33.9,M,5.0,0000*75
$GPGSA,M,3,12,02,06,24,19,,,,,,,,4.8,3.8,2.9*3B
$GPGSV,3,1,10,12,79,339,46,02,75,034,39,06,28,043,34,24,27,213,38*75
$GPGSV,3,2,10,19,19,072,39,05,30,151,40,25,41,318,34,29,21,284,33*78
$GPGSV,3,3,10,46,45,145,38,20,03,189,*71
$GPRMC,025235.000,A,3402.6421,N,11829.7140,W,13.01,136.11,050516,,,D*4F
$GPGGA,025236.000,3402.6387,N,11829.7101,W,2,05,3.8,93.2,M,-33.9,M,6.0,0000*7C
$GPGSA,M,3,12,02,06,24,19,,,,,,,,4.8,3.8,2.9*3B
$GPRMC,025236.000,A,3402.6387,N,11829.7101,W,13.50,136.35,050516,,,D*40
$GPGGA,025237.000,3402.6353,N,11829.7064,W,2,05,3.8,94.6,M,-33.9,M,7.0,0000*74
$GPGSA,M,3,12,02,06,24,19,,,,,,,,4.8,3.8,2.9*3B
$GPRMC,025237.000,A,3402.6353,N,11829.7064,W,13.72,135.88,050516,,,D*4F
$GPGGA,025238.000,3402.6323,N,11829.7026,W,2,05,3.8,94.7,M,-33.9,M,8.0,0000*74
$GPGSA,M,3,12,02,06,24,19,,,,,,,,4.8,3.8,2.9*3B
$GPRMC,025238.000,A,3402.6323,N,11829.7026,W,14.47,134.43,050516,,,D*46
$GPGGA,025239.000,3402.6294,N,11829.6990,W,2,05,3.8,95.1,M,-33.9,M,9.0,0000*7B
$GPGSA,M,3,12,02,06,24,19,,,,,,,,4.8,3.8,2.9*3B
$GPRMC,025239.000,A,3402.6294,N,11829.6990,W,14.14,135.08,050516,,,D*47
$GPGGA,025240.000,3402.6260,N,11829.6947,W,2,05,3.8,95.9,M,-33.9,M,2.0,0000*77
$GPGSA,M,3,12,02,06,24,19,,,,,,,,4.8,3.8,2.9*3B
$GPGSV,3,1,10,12,79,339,45,02,75,034,35,06,28,043,39,24,27,213,37*78
$GPGSV,3,2,10,19,19,072,35,05,30,151,34,25,41,318,37,29,21,284,34*73
$GPGSV,3,3,10,46,45,145,37,20,03,189,*7E
$GPRMC,025240.000,A,3402.6260,N,11829.6947,W,14.47,134.07,050516,,,D*40
$GPGGA,025241.000,3402.6230,N,11829.6910,W,2,05,3.8,95.9,M,-33.9,M,2.0,0000*71
$GPGSA,M,3,12,02,06,24,19,,,,,,,,4.8,3.8,2.9*3B
$GPRMC,025241.000,A,3402.6230,N,11829.6910,W,15.20,134.04,050516,,,D*45
$GPGGA,025242.000,3402.6196,N,11829.6866,W,2,05,3.8,96.5,M,-33.9,M,3.0,0000*73
$GPGSA,M,3,12,02,06,24,19,,,,,,,,4.8,3.8,2.9*3B
$GPRMC,025242.000,A,3402.6196,N,11829.6866,W,15.49,134.27,050516,,,D*47
$GPGGA,025243.000,3402.6169,N,11829.6832,W,2,05,3.8,95.8,M,-33.9,M,4.0,0000*7A
$GPGSA,M,3,12,02,06,24,19,,,,,,,,4.8,3.8,2.8*3A
$GPRMC,025243.000,A,3402.6169,N,11829.6832,W,15.44,135.00,050516,,,D*4E
$GPGGA,025244.000,3402.6138,N,11829.6798,W,2,05,3.8,95.4,M,-33.9,M,5.0,0000*7B
$GPGSA,M,3,12,02,06,24,19,,,,,,,,4.8,3.8,2.8*3A
$GPRMC,025244.000,A,3402.6138,N,11829.6798,W,15.81,136.23,050516,,,D*49
$GPGGA,025245.000,3402.6103,N,11829.6761,W,2,05,3.8,95.1,M,-33.9,M,6.0,0000*72
$GPGSA,M,3,12,02,06,24,19,,,,,,,,4.8,3.8,2.8*3A
$GPGSV,3,1,10,12,79,339,41,02,75,034,37,06,28,043,32,24,27,213,36*74
$GPGSV,3,2,10,19,19,072,36,05,30,151,37,25,41,318,38,29,21,284,33*7B
$GPGSV,3,3,10,46,45,145,36,20,03,189,*7F
$GPRMC,025245.000,A,3402.6103,N,11829.6761,W,16.12,138.32,050516,,,D*41
$GPGGA,025246.000,3402.6066,N,11829.6719,W,2,05,3.8,94.6,M,-33.9,M,2.0,0000*7E
$GPGSA,M,3,12,02,06,24,19,,,,,,,,4.8,3.8,2.8*3A
$GPRMC,025246.000,A,3402.6066,N,11829.6719,W,17.21,136.73,050516,,,D*45
$GPGGA,025247.000,3402.6028,N,11829.6674,W,2,05,3.8,94.2,M,-33.9,M,3.0,0000*7A
$GPGSA,M,3,12,02,06,24,19,,,,,,,,4.8,3.8,2.8*3A
$GPRMC,025247.000,A,3402.6028,N,11829.6674,W,18.60,134.79,050516,,,D*46
$GPGGA,025248.000,3402.5991,N,11829.6632,W,2,05,3.8,93.7,M,-33.9,M,4.0,0000*7A
$GPGSA,M,3,12,02,06,24,19,,,,,,,,4.8,3.8,2.8*3A
$GPRMC,025248.000,A,3402.5991,N,11829.6632,W,18.92,135.60,050516,,,D*47
$GPGGA,025249.000,3402.5954,N,11829.6586,W,2,05,3.8,93.4,M,-33.9,M,5.0,0000*7C
$GPGSA,M,3,12,02,06,24,19,,,,,,,,4.8,3.8,2.8*3A
$GPRMC,025249.000,A,3402.5954,N,11829.6586,W,18.56,134.29,050516,,,D*47
$GPGGA,025250.000,3402.5916,N,11829.6540,W,2,05,3.8,93.0,M,-33.9,M,6.0,0000*7F
$GPGSA,M,3,12,02,06,24,19,,,,,,,,4.8,3.8,2.8*3A
$GPGSV,3,1,10,12,79,339,41,02,75,034,37,06,28,043,35,24,27,213,37*72
$GPGSV,3,2,10,19,19,072,36,05,30,151,32,20,03,189,17,25,41,318,38*7F
$GPGSV,3,3,10,29,21,284,29,46,45,145,33*76
$GPRMC,025250.000,A,3402.5916,N,11829.6540,W,18.55,135.49,050516,,,D*47
$GPGGA,025251.000,3402.5878,N,11829.6496,W,2,05,3.8,92.7,M,-33.9,M,7.0,0000*7A
$GPGSA,M,3,12,02,06,24,19,,,,,,,,4.8,3.8,2.8*3A
$GPRMC,025251.000,A,3402.5878,N,11829.6496,W,18.46,136.57,050516,,,D*4B
$GPGGA,025252.000,3402.5839,N,11829.6452,W,2,05,3.8,92.4,M,-33.9,M,8.0,0000*78
$GPGSA,M,3,12,02,06,24,19,,,,,,,,4.8,3.8,2.8*3A
$GPRMC,025252.000,A,3402.5839,N,11829.6452,W,18.74,136.73,050516,,,D*42
$GPGGA,025253.000,3402.5803,N,11829.6412,W,2,05,3.8,91.8,M,-33.9,M,9.0,0000*7A
$GPGSA,M,3,12,02,06,24,19,,,,,,,,4.8,3.8,2.8*3A
$GPRMC,025253.000,A,3402.5803,N,11829.6412,W,17.52,137.12,050516,,,D*43
$GPGGA,025254.000,3402.5770,N,11829.6374,W,2,05,3.8,91.1,M,-33.9,M,10.0,0000*40
$GPGSA,M,3,12,02,06,24,19,,,,,,,,4.8,3.8,2.8*3A
$GPRMC,025254.000,A,3402.5770,N,11829.6374,W,16.90,136.98,050516,,,D*44
$GPGGA,025255.000,3402.5732,N,11829.6329,W,2,05,3.8,91.6,M,-33.9,M,11.0,0000*49
$GPGSA,M,3,12,02,06,24,19,,,,,,,,4.8,3.8,2.8*3A
$GPGSV,3,1,10,12,79,339,42,02,75,034,39,06,28,043,37,24,27,213,36*7C
$GPGSV,3,2,10,19,19,072,38,05,30,151,33,25,41,318,38,29,21,284,31*73
$GPGSV,3,3,10,46,45,145,35,20,03,189,*7C
$GPRMC,025255.000,A,3402.5732,N,11829.6329,W,17.17,135.15,050516,,,D*43
$GPGGA,025256.000,3402.5699,N,11829.6288,W,2,05,3.8,91.3,M,-33.9,M,12.0,0000*46
$GPGSA,M,3,12,02,06,24,19,,,,,,,,4.8,3.8,2.8*3A
$GPRMC,025256.000,A,3402.5699,N,11829.6288,W,17.17,134.67,050516,,,D*4E
$GPGGA,025257.000,3402.5668,N,11829.6250,W,2,05,3.8,90.5,M,-33.9,M,13.0,0000*4A
$GPGSA,M,3,12,02,06,24,19,,,,,,,,4.8,3.8,2.8*3A
$GPRMC,025257.000,A,3402.5668,N,11829.6250,W,16.65,134.80,050516,,,D*49
$GPGGA,025258.000,3402.5621,N,11829.6193,W,2,06,1.5,92.5,M,-33.9,M,14.0,0000*4D
$GPGSA,M,3,12,02,06,24,19,25,,,,,,,2.3,1.5,1.8*3C
$GPRMC,025258.000,A,3402.5621,N,11829.6193,W,17.43,135.61,050516,,,D*4C
$GPGGA,025259.000,3402.5581,N,11829.6145,W,2,06,1.5,93.2,M,-33.9,M,15.0,0000*49
$GPGSA,M,3,12,02,25,06,24,19,,,,,,,2.3,1.5,1.8*3C
$GPRMC,025259.000,A,3402.5581,N,11829.6145,W,17.08,136.12,050516,,,D*47
$GPGGA,025300.000,3402.5544,N,11829.6104,W,2,06,1.5,93.5,M,-33.9,M,16.0,0000*4C
$GPGSA,M,3,12,02,25,06,24,19,,,,,,,2.3,1.5,1.8*3C
$GPGSV,3,1,10,12,80,339,42,02,75,034,39,25,41,318,38,06,28,043,37*7F
$GPGSV,3,2,10,24,27,213,37,19,18,072,43,05,30,151,34,29,21,284,31*7D
$GPGSV,3,3,10,46,45,145,33,20,03,189,*7A
$GPRMC,025300.000,A,3402.5544,N,11829.6104,W,15.80,138.20,050516,,,D*4B
$GPGGA,025301.000,3402.5511,N,11829.6068,W,2,06,1.5,93.6,M,-33.9,M,17.0,0000*44
$GPGSA,M,3,12,02,25,06,24,19,,,,,,,2.3,1.5,1.8*3C
$GPRMC,025301.000,A,3402.5511,N,11829.6068,W,14.19,138.03,050516,,,D*41
$GPGGA,025302.000,3402.5485,N,11829.6039,W,2,06,1.5,93.6,M,-33.9,M,18.0,0000*40
$GPGSA,M,3,12,02,25,06,24,19,,,,,,,2.3,1.5,1.8*3C
$GPRMC,025302.000,A,3402.5485,N,11829.6039,W,11.26,136.65,050516,,,D*4D
$GPGGA,025303.000,3402.5466,N,11829.6016,W,1,06,1.5,93.7,M,-33.9,M,,0000*54
$GPGSA,M,3,12,02,25,06,24,19,,,,,,,2.3,1.5,1.8*3C
$GPRMC,025303.000,A,3402.5466,N,11829.6016,W,8.36,136.38,050516,,,A*78
$GPGGA,025304.000,3402.5453,N,11829.6001,W,1,06,1.5,93.6,M,-33.9,M,,0000*52
$GPGSA,M,3,12,02,25,06,24,19,,,,,,,2.3,1.5,1.8*3C
$GPRMC,025304.000,A,3402.5453,N,11829.6001,W,5.13,137.76,050516,,,A*7E
$GPGGA,025305.000,3402.5446,N,11829.5992,W,1,06,1.5,93.5,M,-33.9,M,,0000*54
$GPGSA,M,3,12,02,25,06,24,19,,,,,,,2.3,1.5,1.8*3C
$GPGSV,3,1,10,12,80,339,41,02,75,034,41,25,41,318,35,06,28,043,38*71
$GPGSV,3,2,10,24,27,213,29,19,18,072,34,05,30,151,41,20,03,189,24*73
$GPGSV,3,3,10,29,21,284,30,46,45,145,37*7A
$GPRMC,025305.000,A,3402.5446,N,11829.5992,W,2.99,139.40,050516,,,A*75
$GPGGA,025306.000,3402.5439,N,11829.5984,W,1,06,1.5,93.5,M,-33.9,M,,0000*58
$GPGSA,M,3,12,02,25,06,24,19,,,,,,,2.3,1.5,1.8*3C
$GPRMC,025306.000,A,3402.5439,N,11829.5984,W,3.86,136.64,050516,,,A*7F
$GPGGA,025307.000,3402.5429,N,11829.5973,W,1,06,1.5,93.4,M,-33.9,M,,0000*51
$GPGSA,M,3,12,02,25,06,24,19,,,,,,,2.3,1.5,1.8*3C
$GPRMC,025307.000,A,3402.5429,N,11829.5973,W,6.42,138.51,050516,,,A*72
$GPGGA,025308.000,3402.5414,N,11829.5956,W,1,06,1.5,93.4,M,-33.9,M,,0000*57
$GPGSA,M,3,12,02,25,06,24,19,,,,,,,2.3,1.5,1.8*3C
$GPRMC,025308.000,A,3402.5414,N,11829.5956,W,8.75,136.09,050516,,,A*7D
$GPGGA,025309.000,3402.5391,N,11829.5931,W,1,06,1.5,93.4,M,-33.9,M,,0000*5D
$GPGSA,M,3,12,02,25,06,24,19,,,,,,,2.3,1.5,1.8*3C
$GPRMC,025309.000,A,3402.5391,N,11829.5931,W,11.32,136.56,050516,,,A*46
$GPGGA,025310.000,3402.5365,N,11829.5898,W,1,06,1.5,93.1,M,-33.9,M,,0000*59
$GPGSA,M,3,12,02,25,06,24,19,,,,,,,2.3,1.5,1.8*3C
$GPGSV,3,1,10,12,80,339,43,02,75,034,41,25,41,318,41,06,28,043,32*7A
$GPGSV,3,2,10,24,27,213,33,19,18,072,40,05,30,151,34,20,03,189,22*7F
$GPGSV,3,3,10,29,21,284,30,46,45,145,37*7A
$GPRMC,025310.000,A,3402.5365,N,11829.5898,W,13.35,134.36,050516,,,A*46
$GPGGA,025311.000,3402.5336,N,11829.5863,W,1,06,1.5,92.8,M,-33.9,M,,0000*52
$GPGSA,M,3,12,02,25,06,24,19,,,,,,,2.3,1.5,1.8*3C
$GPRMC,025311.000,A,3402.5336,N,11829.5863,W,15.24,134.22,050516,,,A*46
$GPGGA,025312.000,3402.5304,N,11829.5824,W,1,06,1.5,92.8,M,-33.9,M,,0000*53
$GPGSA,M,3,12,02,25,06,24,19,,,,,,,2.3,1.5,1.8*3C
$GPRMC,025312.000,A,3402.5304,N,11829.5824,W,16.92,135.06,050516,,,A*4E
$GPGGA,025313.000,3402.5269,N,11829.5782,W,1,06,1.5,92.7,M,-33.9,M,,0000*54
$GPGSA,M,3,12,02,25,06,24,19,,,,,,,2.3,1.5,1.8*3C
$GPRMC,025313.000,A,3402.5269,N,11829.5782,W,17.96,136.20,050516,,,A*44
$GPGGA,025314.000,3402.5232,N,11829.5739,W,1,06,1.5,92.3,M,-33.9,M,,0000*59
$GPGSA,M,3,12,02,25,06,24,19,,,,,,,2.3,1.5,1.8*3C
$GPRMC,025314.000,A,3402.5232,N,11829.5739,W,19.04,136.42,050516,,,A*4C
$GPGGA,025315.000,3402.5193,N,11829.5694,W,1,06,1.5,91.9,M,-33.9,M,,0000*5F
$GPGSA,M,3,12,02,25,06,24,19,,,,,,,2.3,1.5,1.8*3C
$GPGSV,3,1,10,12,80,339,43,02,75,034,41,25,41,318,40,06,28,043,35*7C
$GPGSV,3,2,10,24,27,213,36,19,18,072,33,05,30,151,33,29,21,284,25*79
$GPGSV,3,3,10,46,45,145,34,20,03,189,*7D
$GPRMC,025315.000,A,3402.5193,N,11829.5694,W,20.07,135.92,050516,,,A*44
$GPGGA,025316.000,3402.5152,N,11829.5646,W,1,06,1.5,91.5,M,-33.9,M,,0000*52
$GPGSA,M,3,12,02,25,06,24,19,,,,,,,2.3,1.5,1.8*3C
$GPRMC,025316.000,A,3402.5152,N,11829.5646,W,20.63,134.65,050516,,,A*4E
$GPGGA,025317.000,3402.5112,N,11829.5597,W,1,06,1.5,91.2,M,-33.9,M,,0000*5F
$GPGSA,M,3,12,02,25,06,24,19,,,,,,,2.3,1.5,1.8*3C
$GPRMC,025317.000,A,3402.5112,N,11829.5597,W,20.63,133.90,050516,,,A*49
$GPGGA,025318.000,3402.5072,N,11829.5547,W,1,06,1.5,91.0,M,-33.9,M,,0000*58
$GPGSA,M,3,12,02,25,06,24,19,,,,,,,2.3,1.5,1.8*3C
$GPRMC,025318.000,A,3402.5072,N,11829.5547,W,20.61,134.62,050516,,,A*44
$GPGGA,025319.000,3402.5032,N,11829.5498,W,1,06,1.5,90.6,M,-33.9,M,,0000*59
$GPGSA,M,3,12,02,25,06,24,19,,,,,,,2.3,1.5,1.8*3C
$GPRMC,025319.000,A,3402.5032,N,11829.5498,W,20.33,135.05,050516,,,A*45
$GPGGA,025320.000,3402.4992,N,11829.5450,W,1,06,1.5,90.2,M,-33.9,M,,0000*51
$GPGSA,M,3,12,02,25,06,24,19,,,,,,,2.3,1.5,1.8*3C
$GPGSV,3,1,10,12,80,340,43,02,75,034,41,25,41,317,39,06,28,043,34*72
$GPGSV,3,2,10,24,26,212,36,19,18,072,38,05,30,151,33,29,21,284,29*7E
$GPGSV,3,3,10,46,45,145,35,20,04,189,*7B
$GPRMC,025320.000,A,3402.4992,N,11829.5450,W,20.32,135.23,050516,,,A*4C
$GPGGA,025321.000,3402.4949,N,11829.5403,W,1,06,1.5,89.5,M,-33.9,M,,0000*5F
$GPGSA,M,3,12,02,25,06,24,19,,,,,,,2.3,1.5,1.8*3C
$GPRMC,025321.000,A,3402.4949,N,11829.5403,W,20.32,136.67,050516,,,A*4E
$GPGGA,025322.000,3402.4909,N,11829.5358,W,1,06,1.5,89.0,M,-33.9,M,,0000*54
$GPGSA,M,3,12,02,25,06,24,19,,,,,,,2.3,1.5,1.8*3C
$GPRMC,025322.000,A,3402.4909,N,11829.5358,W,20.10,136.41,050516,,,A*44
$GPGGA,025323.000,3402.4867,N,11829.5310,W,1,06,1.5,88.6,M,-33.9,M,,0000*57
$GPGSA,M,3,12,02,25,06,24,19,,,,,,,2.3,1.5,1.8*3C
$GPRMC,025323.000,A,3402.4867,N,11829.5310,W,21.47,136.09,050516,,,A*4F
$GPGGA,025324.000,3402.4825,N,11829.5260,W,1,06,1.5,88.5,M,-33.9,M,,0000*53
$GPGSA,M,3,12,02,25,06,24,19,,,,,,,2.3,1.5,1.8*3C
$GPRMC,025324.000,A,3402.4825,N,11829.5260,W,21.14,136.30,050516,,,A*44
$GPGGA,025325.000,3402.4783,N,11829.5213,W,1,06,1.5,88.6,M,-33.9,M,,0000*56
$GPGSA,M,3,12,02,25,06,24,19,,,,,,,2.3,1.5,1.8*3C
$GPGSV,3,1,10,12,80,340,42,02,75,034,40,25,41,317,37,06,28,043,33*7B
$GPGSV,3,2,10,24,26,212,36,19,18,072,35,05,30,151,38,29,21,284,35*75
$GPGSV,3,3,10,46,45,145,36,20,04,189,*78
$GPRMC,025325.000,A,3402.4783,N,11829.5213,W,20.99,136.20,050516,,,A*47
$GPGGA,025326.000,3402.4742,N,11829.5164,W,1,06,1.5,88.3,M,-33.9,M,,0000*5E
$GPGSA,M,3,12,02,25,06,24,19,,,,,,,2.3,1.5,1.8*3C
$GPRMC,025326.000,A,3402.4742,N,11829.5164,W,20.83,135.23,050516,,,A*41
$GPGGA,025327.000,3402.4702,N,11829.5114,W,1,06,1.5,88.0,M,-33.9,M,,0000*5F
$GPGSA,M,3,12,02,25,06,24,19,,,,,,,2.3,1.5,1.8*3C
$GPRMC,025327.000,A,3402.4702,N,11829.5114,W,20.48,134.81,050516,,,A*4D
$GPGGA,025328.000,3402.4663,N,11829.5065,W,1,06,1.5,88.0,M,-33.9,M,,0000*51
$GPGSA,M,3,12,02,25,06,24,19,,,,,,,2.3,1.5,1.8*3C
$GPRMC,025328.000,A,3402.4663,N,11829.5065,W,20.27,134.54,050516,,,A*42
$GPGGA,025329.000,3402.4623,N,11829.5018,W,1,06,1.5,87.8,M,-33.9,M,,0000*59
$GPGSA,M,3,12,02,25,06,24,19,,,,,,,2.3,1.5,1.8*3C
$GPRMC,025329.000,A,3402.4623,N,11829.5018,W,19.74,135.67,050516,,,A*40
$GPGGA,025330.000,3402.4584,N,11829.4973,W,1,06,1.5,87.6,M,-33.9,M,,0000*54
$GPGSA,M,3,12,02,25,06,24,19,,,,,,,2.3,1.5,1.8*3C
$GPGSV,3,1,10,12,80,340,43,02,75,034,40,25,41,317,37,06,28,043,36*7F
$GPGSV,3,2,10,24,26,212,37,19,18,072,39,05,30,151,34,29,21,284,34*75
$GPGSV,3,3,10,46,45,145,36,20,04,189,*78
$GPRMC,025330.000,A,3402.4584,N,11829.4973,W,19.21,136.31,050516,,,A*43
$GPGGA,025331.000,3402.4549,N,11829.4931,W,1,06,1.5,87.3,M,-33.9,M,,0000*57
$GPGSA,M,3,12,02,25,06,24,19,,,,,,,2.3,1.5,1.8*3C
$GPRMC,025331.000,A,3402.4549,N,11829.4931,W,17.12,136.32,050516,,,A*48
$GPGGA,025332.000,3402.4517,N,11829.4896,W,1,06,1.5,87.0,M,-33.9,M,,0000*50
$GPGSA,M,3,12,02,25,06,24,19,,,,,,,2.3,1.5,1.8*3C
$GPRMC,025332.000,A,3402.4517,N,11829.4896,W,14.41,137.30,050516,,,A*4A
$GPGGA,025333.000,3402.4491,N,11829.4868,W,1,06,1.5,86.7,M,-33.9,M,,0000*59
$GPGSA,M,3,12,02,25,06,24,19,,,,,,,2.3,1.5,1.8*3C
$GPRMC,025333.000,A,3402.4491,N,11829.4868,W,11.25,139.94,050516,,,A*42
$GPGGA,025334.000,3402.4470,N,11829.4849,W,1,06,1.5,86.5,M,-33.9,M,,0000*50
$GPGSA,M,3,12,02,25,06,24,19,,,,,,,2.3,1.5,1.8*3C
$GPRMC,025334.000,A,3402.4470,N,11829.4849,W,7.99,140.80,050516,,,A*72
$GPGGA,025335.000,3402.4457,N,11829.4837,W,1,06,1.5,86.3,M,-33.9,M,,0000*5B
$GPGSA,M,3,12,02,25,06,24,19,,,,,,,2.3,1.5,1.8*3C
$GPGSV,3,1,10,12,80,340,43,02,75,034,42,25,42,317,37,06,28,043,36*7E
$GPGSV,3,2,10,24,26,212,37,19,18,072,41,05,30,151,40,20,04,189,27*7B
$GPGSV,3,3,10,29,21,285,27,46,45,145,36*7C
$GPRMC,025335.000,A,3402.4457,N,11829.4837,W,4.83,139.00,050516,,,A*71
$GPGGA,025336.000,3402.4451,N,11829.4831,W,1,06,1.5,86.2,M,-33.9,M,,0000*59
$GPGSA,M,3,12,02,25,06,24,19,,,,,,,2.3,1.5,1.8*3C
$GPRMC,025336.000,A,3402.4451,N,11829.4831,W,1.98,138.85,050516,,,A*71
$GPGGA,025337.000,3402.4448,N,11829.4829,W,1,06,1.5,86.2,M,-33.9,M,,0000*59
$GPGSA,M,3,12,02,25,06,24,19,,,,,,,2.3,1.5,1.8*3C
$GPRMC,025337.000,A,3402.4448,N,11829.4829,W,1.20,138.43,050516,,,A*78
$GPGGA,025338.000,3402.4445,N,11829.4826,W,1,06,1.5,86.1,M,-33.9,M,,0000*57
$GPGSA,M,3,12,02,25,06,24,19,,,,,,,2.3,1.5,1.8*3C
$GPRMC,025338.000,A,3402.4445,N,11829.4826,W,2.54,138.01,050516,,,A*73
$GPGGA,025339.000,3402.4438,N,11829.4818,W,1,06,1.5,86.0,M,-33.9,M,,0000*50
$GPGSA,M,3,12,02,25,06,24,19,,,,,,,2.3,1.5,1.8*3C
$GPRMC,025339.000,A,3402.4438,N,11829.4818,W,5.27,137.80,050516,,,A*70
$GPGGA,025338.000,3402.4425,N,11829.4803,W,2,06,1.5,85.9,M,-33.9,M,2.0,0000*72
$GPGSA,M,3,12,02,25,06,24,19,,,,,,,2.3,1.5,1.8*3C
$GPGSV,3,1,10,12,80,340,44,02,75,034,41,25,42,317,37,06,28,043,38*74
$GPGSV,3,2,10,24,26,212,37,19,18,072,41,05,30,151,37,29,21,285,36*7A
$GPGSV,3,3,10,46,45,145,34,20,04,189,*7A
$GPRMC,025338.000,A,3402.4425,N,11829.4803,W,7.93,137.79,050516,,,D*79
$GPGGA,025339.000,3402.4406,N,11829.4784,W,2,06,1.5,85.7,M,-33.9,M,3.0,0000*7D
$GPGSA,M,3,12,02,25,06,24,19,,,,,,,2.3,1.5,1.8*3C
$GPRMC,025339.000,A,3402.4406,N,11829.4784,W,10.13,137.76,050516,,,D*48
$GPGGA,025340.000,3402.4384,N,11829.4759,W,2,06,1.5,85.5,M,-33.9,M,4.0,0000*7B
$GPGSA,M,3,12,02,25,06,24,19,,,,,,,2.3,1.5,1.8*3C
$GPRMC,025340.000,A,3402.4384,N,11829.4759,W,12.22,137.06,050516,,,D*4C
$GPGGA,025341.000,3402.4357,N,11829.4729,W,2,06,1.5,85.5,M,-33.9,M,5.0,0000*72
$GPGSA,M,3,12,02,25,06,24,19,,,,,,,2.3,1.5,1.8*3C
$GPRMC,025341.000,A,3402.4357,N,11829.4729,W,14.13,135.82,050516,,,D*4E
$GPGGA,025342.000,3402.4327,N,11829.4695,W,2,06,1.5,85.5,M,-33.9,M,6.0,0000*73
$GPGSA,M,3,12,02,25,06,24,19,,,,,,,2.3,1.5,1.8*3C
$GPRMC,025342.000,A,3402.4327,N,11829.4695,W,15.45,136.28,050516,,,D*4D
$GPGGA,025343.000,3402.4295,N,11829.4656,W,2,06,1.5,85.5,M,-33.9,M,7.0,0000*74
$GPGSA,M,3,12,02,25,06,24,19,,,,,,,2.3,1.5,1.8*3C
$GPGSV,3,1,10,12,80,340,44,02,75,034,35,25,42,317,38,06,28,043,35*75
$GPGSV,3,2,10,24,26,212,38,19,18,072,40,05,30,151,34,29,21,285,29*79
$GPGSV,3,3,10,46,45,145,36,20,04,189,*78
$GPRMC,025343.000,A,3402.4295,N,11829.4656,W,17.14,134.49,050516,,,D*48
$GPGGA,025344.000,3402.4260,N,11829.4613,W,2,06,1.5,85.3,M,-33.9,M,8.0,0000*71
$GPGSA,M,3,12,02,25,06,24,19,,,,,,,2.3,1.5,1.8*3C
$GPRMC,025344.000,A,3402.4260,N,11829.4613,W,18.33,134.21,050516,,,D*40
$GPGGA,025345.000,3402.4224,N,11829.4568,W,2,06,1.5,85.4,M,-33.9,M,2.0,0000*72
$GPGSA,M,3,12,02,25,06,24,19,,,,,,,2.3,1.5,1.8*3C
$GPRMC,025345.000,A,3402.4224,N,11829.4568,W,19.39,133.43,050516,,,D*46
$GPGGA,025346.000,3402.4185,N,11829.4519,W,2,06,1.5,85.4,M,-33.9,M,2.0,0000*7F
$GPGSA,M,3,12,02,25,06,24,19,,,,,,,2.3,1.5,1.8*3C
$GPRMC,025346.000,A,3402.4185,N,11829.4519,W,20.70,134.11,050516,,,D*4C
$GPGGA,025347.000,3402.4143,N,11829.4468,W,2,05,1.5,85.3,M,-33.9,M,2.0,0000*77
$GPGSA,M,3,12,02,25,24,19,,,,,,,,2.5,1.5,1.9*3D
$GPRMC,025347.000,A,3402.4143,N,11829.4468,W,21.66,135.16,050516,,,D*40
$GPGGA,025348.000,3402.4099,N,11829.4416,W,2,05,1.5,85.2,M,-33.9,M,2.0,0000*76
$GPGSA,M,3,12,02,25,24,19,,,,,,,,2.5,1.5,1.9*3D
$GPGSV,3,1,10,12,80,340,44,02,75,034,37,25,42,317,38,24,26,212,38*72
$GPGSV,3,2,10,19,18,072,36,05,30,151,35,06,28,043,37,29,21,285,36*70
$GPGSV,3,3,10,46,45,145,37,20,04,189,*79
$GPRMC,025348.000,A,3402.4099,N,11829.4416,W,22.41,135.16,050516,,,D*46
$GPGGA,025349.000,3402.4054,N,11829.4362,W,2,05,1.5,85.1,M,-33.9,M,2.0,0000*71
$GPGSA,M,3,12,02,25,24,19,,,,,,,,2.5,1.5,1.9*3D
$GPRMC,025349.000,A,3402.4054,N,11829.4362,W,23.11,136.04,050516,,,D*46
$GPGGA,025350.000,3402.4006,N,11829.4308,W,2,05,1.5,85.0,M,-33.9,M,2.0,0000*73
$GPGSA,M,3,12,02,25,24,19,,,,,,,,2.5,1.5,1.9*3D
$GPRMC,025350.000,A,3402.4006,N,11829.4308,W,23.61,136.93,050516,,,D*4C
$GPGGA,025351.000,3402.3958,N,11829.4253,W,2,05,1.5,84.9,M,-33.9,M,3.0,0000*71
$GPGSA,M,3,12,02,25,24,19,,,,,,,,2.5,1.5,1.9*3D
$GPRMC,025351.000,A,3402.3958,N,11829.4253,W,23.98,137.48,050516,,,D*46
$GPGGA,025352.000,3402.3908,N,11829.4198,W,2,05,1.5,84.9,M,-33.9,M,4.0,0000*74
$GPGSA,M,3,12,02,25,24,19,,,,,,,,2.5,1.5,1.9*3D
$GPRMC,025352.000,A,3402.3908,N,11829.4198,W,24.14,137.26,050516,,,D*4F
$GPGGA,025353.000,3402.3859,N,11829.4142,W,2,05,1.5,84.6,M,-33.9,M,5.0,0000*79
$GPGSA,M,3,12,02,25,24,19,,,,,,,,2.5,1.5,1.9*3D
$GPGSV,3,1,10,12,80,340,44,02,75,034,39,25,42,317,39,24,26,212,38*7D
$GPGSV,3,2,10,19,18,072,40,05,30,151,36,06,28,043,35,29,21,285,36*70
$GPGSV,3,3,10,46,45,145,33,20,04,189,*7D
$GPRMC,025353.000,A,3402.3859,N,11829.4142,W,24.23,136.67,050516,,,D*4C
$GPGGA,025354.000,3402.3811,N,11829.4085,W,2,05,1.5,84.3,M,-33.9,M,6.0,0000*7E
$GPGSA,M,3,12,02,25,24,19,,,,,,,,2.5,1.5,1.9*3D
$GPRMC,025354.000,A,3402.3811,N,11829.4085,W,23.94,135.89,050516,,,D*45
$GPGGA,025355.000,3402.3763,N,11829.4029,W,2,05,1.5,84.2,M,-33.9,M,7.0,0000*73
$GPGSA,M,3,12,02,25,24,19,,,,,,,,2.5,1.5,1.9*3D
$GPRMC,025355.000,A,3402.3763,N,11829.4029,W,23.61,135.80,050516,,,D*4B
$GPGGA,025356.000,3402.3716,N,11829.3974,W,2,05,1.5,84.1,M,-33.9,M,8.0,0000*78
$GPGSA,M,3,12,02,25,24,19,,,,,,,,2.5,1.5,1.9*3D
$GPRMC,025356.000,A,3402.3716,N,11829.3974,W,23.39,136.61,050516,,,D*4D
$GPGGA,025357.000,3402.3670,N,11829.3923,W,2,05,1.5,84.1,M,-33.9,M,9.0,0000*7B
$GPGSA,M,3,12,02,25,24,19,,,,,,,,2.5,1.5,1.9*3D
$GPRMC,025357.000,A,3402.3670,N,11829.3923,W,21.71,136.84,050516,,,D*4A
$GPGGA,025358.000,3402.3628,N,11829.3876,W,2,05,1.5,84.0,M,-33.9,M,10.0,0000*41
$GPGSA,M,3,12,02,25,24,19,,,,,,,,2.5,1.5,1.9*3D
$GPGSV,3,1,10,12,80,340,44,02,75,034,40,25,42,317,38,24,26,212,37*7D
$GPGSV,3,2,10,19,18,072,32,05,30,151,35,06,28,043,35,29,21,285,31*71
$GPGSV,3,3,10,46,45,145,32,20,04,189,*7C
$GPRMC,025358.000,A,3402.3628,N,11829.3876,W,19.11,136.87,050516,,,D*47
$GPGGA,025359.000,3402.3593,N,11829.3836,W,2,05,1.5,83.9,M,-33.9,M,11.0,0000*48
$GPGSA,M,3,12,02,25,24,19,,,,,,,,2.5,1.5,1.9*3D
$GPRMC,025359.000,A,3402.3593,N,11829.3836,W,16.24,136.31,050516,,,D*45
$GPGGA,025400.000,3402.3562,N,11829.3802,W,2,05,1.5,83.9,M,-33.9,M,12.0,0000*49
$GPGSA,M,3,12,02,25,24,19,,,,,,,,2.5,1.5,1.9*3D
$GPRMC,025400.000,A,3402.3562,N,11829.3802,W,14.49,137.61,050516,,,D*4A
$GPGGA,025401.000,3402.3533,N,11829.3770,W,2,05,1.5,84.0,M,-33.9,M,2.0,0000*79
$GPGSA,M,3,12,02,25,24,19,,,,,,,,2.5,1.5,1.9*3D
$GPRMC,025401.000,A,3402.3533,N,11829.3770,W,14.05,137.67,050516,,,D*4B
$GPGGA,025402.000,3402.3505,N,11829.3738,W,2,05,1.5,84.0,M,-33.9,M,2.0,0000*73
$GPGSA,M,3,12,02,25,24,19,,,,,,,,2.5,1.5,1.9*3D
$GPRMC,025402.000,A,3402.3505,N,11829.3738,W,14.34,136.63,050516,,,D*46
$GPGGA,025403.000,3402.3477,N,11829.3701,W,2,05,1.5,83.5,M,-33.9,M,3.0,0000*7F
$GPGSA,M,3,12,02,25,24,19,,,,,,,,2.5,1.5,1.9*3D
$GPGSV,3,1,10,12,80,340,44,02,75,034,36,25,42,317,38,24,26,212,27*7D
$GPGSV,3,2,10,19,18,072,41,05,30,151,35,06,28,043,39,29,21,285,30*78
$GPGSV,3,3,10,46,45,145,33,20,04,189,*7D
$GPRMC,025403.000,A,3402.3477,N,11829.3701,W,14.94,133.79,050516,,,D*4D
$GPGGA,025404.000,3402.3447,N,11829.3663,W,2,05,1.5,83.2,M,-33.9,M,4.0,0000*7E
$GPGSA,M,3,12,02,25,24,19,,,,,,,,2.5,1.5,1.9*3D
$GPRMC,025404.000,A,3402.3447,N,11829.3663,W,15.99,132.82,050516,,,D*45
$GPGGA,025405.000,3402.3414,N,11829.3625,W,2,05,1.5,83.1,M,-33.9,M,5.0,0000*79
$GPGSA,M,3,12,02,25,24,19,,,,,,,,2.5,1.5,1.9*3D
$GPRMC,025405.000,A,3402.3414,N,11829.3625,W,17.08,135.76,050516,,,D*46
$GPGGA,025406.000,3402.3379,N,11829.3583,W,2,05,1.5,83.2,M,-33.9,M,6.0,0000*79
$GPGSA,M,3,12,02,25,24,19,,,,,,,,2.5,1.5,1.9*3D
$GPRMC,025406.000,A,3402.3379,N,11829.3583,W,18.58,136.30,050516,,,D*4D
$GPGGA,025407.000,3402.3341,N,11829.3537,W,2,05,1.5,83.0,M,-33.9,M,7.0,0000*7F
$GPGSA,M,3,12,02,25,24,19,,,,,,,,2.5,1.5,1.9*3D
$GPRMC,025407.000,A,3402.3341,N,11829.3537,W,19.77,134.39,050516,,,D*4F
$GPGGA,025408.000,3402.3301,N,11829.3490,W,2,05,1.5,83.0,M,-33.9,M,8.0,0000*77
$GPGSA,M,3,12,02,25,24,19,,,,,,,,2.5,1.5,1.9*3D
$GPGSV,3,1,10,12,80,340,43,02,75,034,40,25,42,317,38,24,26,212,36*7B
$GPGSV,3,2,10,19,18,072,39,05,30,151,36,06,28,043,35,29,21,285,26*7F
$GPGSV,3,3,10,46,45,145,35,20,04,189,*7B
$GPRMC,025408.000,A,3402.3301,N,11829.3490,W,20.57,136.98,050516,,,D*49
$GPGGA,025409.000,3402.3261,N,11829.3441,W,2,05,1.5,83.0,M,-33.9,M,9.0,0000*7C
$GPGSA,M,3,12,02,25,24,19,,,,,,,,2.5,1.5,1.9*3D
$GPRMC,025409.000,A,3402.3261,N,11829.3441,W,21.08,135.78,050516,,,D*45
$GPGGA,025410.000,3402.3219,N,11829.3391,W,2,05,1.5,82.8,M,-33.9,M,10.0,0000*40
$GPGSA,M,3,12,02,25,24,19,,,,,,,,2.5,1.5,1.9*3D
$GPRMC,025410.000,A,3402.3219,N,11829.3391,W,20.96,134.72,050516,,,D*45
$GPGGA,025411.000,3402.3178,N,11829.3341,W,2,05,1.5,82.7,M,-33.9,M,11.0,0000*46
$GPGSA,M,3,12,02,25,24,19,,,,,,,,2.5,1.5,1.9*3D
$GPRMC,025411.000,A,3402.3178,N,11829.3341,W,21.51,135.25,050516,,,D*44
$GPGGA,025412.000,3402.3135,N,11829.3291,W,2,05,1.5,82.5,M,-33.9,M,12.0,0000*41
$GPGSA,M,3,12,02,25,24,19,,,,,,,,2.5,1.5,1.9*3D
$GPRMC,025412.000,A,3402.3135,N,11829.3291,W,21.66,136.31,050516,,,D*40
$GPGGA,025413.000,3402.3091,N,11829.3240,W,2,05,1.5,82.3,M,-33.9,M,13.0,0000*44
$GPGSA,M,3,12,02,25,24,19,,,,,,,,2.5,1.5,1.9*3D
$GPGSV,3,1,10,12,80,340,43,02,75,034,40,25,42,317,37,24,26,212,36*74
$GPGSV,3,2,10,19,18,072,38,05,30,151,36,06,28,043,35,29,21,285,32*7B
$GPGSV,3,3,10,46,45,145,35,20,04,189,*7B
$GPRMC,025413.000,A,3402.3091,N,11829.3240,W,21.85,136.43,050516,,,D*4A
$GPGGA,025414.000,3402.3048,N,11829.3189,W,2,05,1.5,82.2,M,-33.9,M,14.0,0000*47
$GPGSA,M,3,12,02,25,24,19,,,,,,,,2.5,1.5,1.9*3D
$GPRMC,025414.000,A,3402.3048,N,11829.3189,W,21.49,135.99,050516,,,D*4B
$GPGGA,025415.000,3402.3005,N,11829.3139,W,2,05,1.5,82.2,M,-33.9,M,15.0,0000*45
$GPGSA,M,3,12,02,25,24,19,,,,,,,,2.5,1.5,1.9*3D
$GPRMC,025415.000,A,3402.3005,N,11829.3139,W,21.07,136.25,050516,,,D*46
$GPGGA,025416.000,3402.2964,N,11829.3091,W,2,05,1.5,82.1,M,-33.9,M,16.0,0000*4A
$GPGSA,M,3,12,02,25,24,19,,,,,,,,2.5,1.5,1.9*3D
$GPRMC,025416.000,A,3402.2964,N,11829.3091,W,20.43,135.93,050516,,,D*46
$GPGGA,025417.000,3402.2924,N,11829.3047,W,2,05,1.5,82.1,M,-33.9,M,17.0,0000*45
$GPGSA,M,3,12,02,25,24,19,,,,,,,,2.5,1.5,1.9*3D
$GPRMC,025417.000,A,3402.2924,N,11829.3047,W,18.59,138.25,050516,,,D*48
$GPGGA,025418.000,3402.2887,N,11829.3009,W,2,05,1.5,82.3,M,-33.9,M,18.0,0000*45
$GPGSA,M,3,12,02,25,24,19,,,,,,,,2.5,1.5,1.9*3D
$GPGSV,3,1,10,12,80,340,42,02,75,034,40,25,42,317,37,24,26,212,37*74
$GPGSV,3,2,10,19,18,072,28,05,30,151,40,06,28,043,35,29,21,285,32*7B
$GPGSV,3,3,10,46,45,145,37,20,04,189,*79
$GPRMC,025418.000,A,3402.2887,N,11829.3009,W,16.59,139.89,050516,,,D*4C
$GPGGA,025419.000,3402.2857,N,11829.2976,W,1,06,1.5,82.2,M,-33.9,M,,0000*5F
$GPGSA,M,3,12,02,25,06,24,19,,,,,,,2.3,1.5,1.8*3C
$GPRMC,025419.000,A,3402.2857,N,11829.2976,W,13.48,138.80,050516,,,A*48
$GPGGA,025420.000,3402.2833,N,11829.2954,W,1,06,1.5,81.9,M,-33.9,M,,0000*5F
$GPGSA,M,3,12,02,25,06,24,19,,,,,,,2.3,1.5,1.8*3C
$GPRMC,025420.000,A,3402.2833,N,11829.2954,W,9.76,141.59,050516,,,A*7C
$GPGGA,025421.000,3402.2817,N,11829.2940,W,1,05,3.8,81.7,M,-33.9,M,,0000*5F
$GPGSA,M,3,12,02,06,24,19,,,,,,,,4.7,3.8,2.8*35
$GPRMC,025421.000,A,3402.2817,N,11829.2940,W,6.56,141.63,050516,,,A*7A
$GPGGA,025422.000,3402.2803,N,11829.2929,W,1,06,1.5,81.4,M,-33.9,M,,0000*59
$GPGSA,M,3,12,02,25,06,24,19,,,,,,,2.3,1.5,1.8*3C
$GPRMC,025422.000,A,3402.2803,N,11829.2929,W,5.22,142.67,050516,,,A*74
$GPGGA,025423.000,3402.2790,N,11829.2919,W,1,06,1.5,81.2,M,-33.9,M,,0000*58
$GPGSA,M,3,12,02,25,06,24,19,,,,,,,2.3,1.5,1.8*3C
$GPGSV,3,1,10,12,80,340,43,02,75,034,43,25,42,317,32,06,28,043,30*7C
$GPGSV,3,2,10,24,26,212,37,19,18,072,40,05,30,151,42,29,21,285,31*7E
$GPGSV,3,3,10,46,45,145,36,20,04,189,*78
$GPRMC,025423.000,A,3402.2790,N,11829.2919,W,5.74,148.59,050516,,,A*77
$GPGGA,025424.000,3402.2775,N,11829.2913,W,1,06,1.5,80.8,M,-33.9,M,,0000*55
$GPGSA,M,3,12,02,25,06,24,19,,,,,,,2.3,1.5,1.8*3C
$GPRMC,025424.000,A,3402.2775,N,11829.2913,W,6.56,166.78,050516,,,A*7D
$GPGGA,025425.000,3402.2755,N,11829.2916,W,1,06,1.5,80.6,M,-33.9,M,,0000*5D
$GPGSA,M,3,12,02,25,06,24,19,,,,,,,2.3,1.5,1.8*3C
$GPRMC,025425.000,A,3402.2755,N,11829.2916,W,7.81,191.19,050516,,,A*7F
$GPGGA,025426.000,3402.2734,N,11829.2930,W,1,06,1.5,80.2,M,-33.9,M,,0000*59
$GPGSA,M,3,12,02,25,06,24,19,,,,,,,2.3,1.5,1.8*3C
$GPRMC,025426.000,A,3402.2734,N,11829.2930,W,9.53,210.64,050516,,,A*7E
$GPGGA,025427.000,3402.2711,N,11829.2953,W,1,06,1.5,80.1,M,-33.9,M,,0000*59
$GPGSA,M,3,12,02,25,06,24,19,,,,,,,2.3,1.5,1.8*3C
$GPRMC,025427.000,A,3402.2711,N,11829.2953,W,11.10,220.54,050516,,,A*43
$GPGGA,025428.000,3402.2694,N,11829.2991,W,1,06,1.5,79.0,M,-33.9,M,,0000*53
$GPGSA,M,3,12,02,25,06,24,19,,,,,,,2.3,1.5,1.8*3C
$GPGSV,3,1,10,12,80,340,45,02,75,034,43,25,42,317,43,06,28,043,34*78
$GPGSV,3,2,10,24,26,212,40,19,18,072,33,05,30,151,49,20,04,189,26*76
$GPGSV,3,3,10,29,21,285,41,46,45,145,33*79
$GPRMC,025428.000,A,3402.2694,N,11829.2991,W,12.88,225.77,050516,,,A*48
$GPGGA,025429.000,3402.2666,N,11829.3027,W,1,06,1.5,78.7,M,-33.9,M,,0000*5C
$GPGSA,M,3,12,02,25,06,24,19,,,,,,,2.3,1.5,1.8*3C
$GPRMC,025429.000,A,3402.2666,N,11829.3027,W,14.42,226.64,050516,,,A*40
$GPGGA,025430.000,3402.2638,N,11829.3065,W,1,06,1.5,78.2,M,-33.9,M,,0000*5C
$GPGSA,M,3,12,02,25,06,24,19,,,,,,,2.3,1.5,1.8*3C
$GPRMC,025430.000,A,3402.2638,N,11829.3065,W,15.16,226.60,050516,,,A*41
$GPGGA,025431.000,3402.2607,N,11829.3103,W,1,06,1.5,78.0,M,-33.9,M,,0000*52
$GPGSA,M,3,12,02,25,06,24,19,,,,,,,2.3,1.5,1.8*3C
$GPRMC,025431.000,A,3402.2607,N,11829.3103,W,15.78,226.38,050516,,,A*48
$GPGGA,025432.000,3402.2575,N,11829.3143,W,1,06,1.5,77.7,M,-33.9,M,,0000*5B
$GPGSA,M,3,12,02,25,06,24,19,,,,,,,2.3,1.5,1.8*3C
$GPRMC,025432.000,A,3402.2575,N,11829.3143,W,16.13,225.99,050516,,,A*4F
$GPGGA,025433.000,3402.2543,N,11829.3183,W,1,06,1.5,77.5,M,-33.9,M,,0000*51
$GPGSA,M,3,12,02,25,06,24,19,,,,,,,2.3,1.5,1.8*3C
$GPGSV,3,1,10,12,80,340,46,02,75,034,43,25,42,317,41,06,28,043,39*74
$GPGSV,3,2,10,24,26,212,41,19,18,072,27,05,30,151,48,29,21,285,23*77
$GPGSV,3,3,10,46,45,145,31,20,04,189,*7F
$GPRMC,025433.000,A,3402.2543,N,11829.3183,W,16.53,225.80,050516,,,A*4B
$GPGGA,025434.000,3402.2510,N,11829.3224,W,1,06,1.5,77.3,M,-33.9,M,,0000*58
$GPGSA,M,3,12,02,25,06,24,19,,,,,,,2.3,1.5,1.8*3C
$GPRMC,025434.000,A,3402.2510,N,11829.3224,W,17.14,225.68,050516,,,A*40
$GPGGA,025435.000,3402.2476,N,11829.3267,W,1,06,1.5,77.1,M,-33.9,M,,0000*5D
$GPGSA,M,3,12,02,25,06,24,19,,,,,,,2.3,1.5,1.8*3C
$GPRMC,025435.000,A,3402.2476,N,11829.3267,W,17.77,224.83,050516,,,A*46
$GPGGA,025436.000,3402.2439,N,11829.3311,W,1,06,1.5,76.9,M,-33.9,M,,0000*5C
$GPGSA,M,3,12,02,25,06,24,19,,,,,,,2.3,1.5,1.8*3C
$GPRMC,025436.000,A,3402.2439,N,11829.3311,W,18.67,225.05,050516,,,A*4F
$GPGGA,025437.000,3402.2402,N,11829.3357,W,1,06,1.5,76.7,M,-33.9,M,,0000*59
$GPGSA,M,3,12,02,25,06,24,19,,,,,,,2.3,1.5,1.8*3C
$GPRMC,025437.000,A,3402.2402,N,11829.3357,W,19.52,225.22,050516,,,A*46
$GPGGA,025438.000,3402.2362,N,11829.3405,W,1,06,1.5,76.5,M,-33.9,M,,0000*55
$GPGSA,M,3,12,02,25,06,24,19,,,,,,,2.3,1.5,1.8*3C
$GPGSV,3,1,10,12,80,340,46,02,75,034,43,25,42,317,41,06,28,043,39*74
$GPGSV,3,2,10,24,26,212,41,19,18,072,27,05,30,151,42,29,21,285,38*77
$GPGSV,3,3,10,46,45,145,34,20,04,189,*7A
$GPRMC,025438.000,A,3402.2362,N,11829.3405,W,20.27,225.34,050516,,,A*47
$GPGGA,025439.000,3402.2321,N,11829.3455,W,1,06,1.5,76.3,M,-33.9,M,,0000*50
$GPGSA,M,3,12,02,25,06,24,19,,,,,,,2.3,1.5,1.8*3C
$GPRMC,025439.000,A,3402.2321,N,11829.3455,W,20.96,224.76,050516,,,A*49
$GPGGA,025440.000,3402.2279,N,11829.3506,W,1,06,1.5,76.2,M,-33.9,M,,0000*54
$GPGSA,M,3,12,02,25,06,24,19,,,,,,,2.3,1.5,1.8*3C
$GPRMC,025440.000,A,3402.2279,N,11829.3506,W,21.81,225.35,050516,,,A*4D
$GPGGA,025441.000,3402.2236,N,11829.3560,W,1,06,1.5,76.1,M,-33.9,M,,0000*5D
$GPGSA,M,3,12,02,25,06,24,19,,,,,,,2.3,1.5,1.8*3C
$GPRMC,025441.000,A,3402.2236,N,11829.3560,W,22.45,225.62,050516,,,A*4E
$GPGGA,025442.000,3402.2192,N,11829.3615,W,1,06,1.5,75.9,M,-33.9,M,,0000*59
$GPGSA,M,3,12,02,25,06,24,19,,,,,,,2.3,1.5,1.8*3C
$GPRMC,025442.000,A,3402.2192,N,11829.3615,W,22.71,225.63,050516,,,A*47
$GPGGA,025443.000,3402.2147,N,11829.3671,W,1,06,1.5,75.7,M,-33.9,M,,0000*5C
$GPGSA,M,3,12,02,25,06,24,19,,,,,,,2.3,1.5,1.8*3C
$GPGSV,3,1,10,12,80,340,46,02,75,034,43,25,42,317,39,06,28,043,39*7B
$GPGSV,3,2,10,24,26,212,41,19,18,072,27,05,30,151,47,29,21,285,24*7F
$GPGSV,3,3,10,46,45,145,34,20,04,189,*7A
$GPRMC,025443.000,A,3402.2147,N,11829.3671,W,23.22,225.28,050516,,,A*44
$GPGGA,025444.000,3402.2101,N,11829.3728,W,1,06,1.5,75.6,M,-33.9,M,,0000*55
$GPGSA,M,3,12,02,25,06,24,19,,,,,,,2.3,1.5,1.8*3C
$GPRMC,025444.000,A,3402.2101,N,11829.3728,W,23.74,225.73,050516,,,A*41
$GPGGA,025445.000,3402.2054,N,11829.3787,W,1,06,1.5,75.4,M,-33.9,M,,0000*52
$GPGSA,M,3,12,02,25,06,24,19,,,,,,,2.3,1.5,1.8*3C
$GPRMC,025445.000,A,3402.2054,N,11829.3787,W,24.16,225.40,050516,,,A*47
$GPGGA,025446.000,3402.2006,N,11829.3845,W,1,06,1.5,75.5,M,-33.9,M,,0000*56
$GPGSA,M,3,12,02,25,06,24,19,,,,,,,2.3,1.5,1.8*3C
$GPRMC,025446.000,A,3402.2006,N,11829.3845,W,24.27,224.44,050516,,,A*45
$GPGGA,025447.000,3402.1958,N,11829.3904,W,1,06,1.5,75.5,M,-33.9,M,,0000*52
$GPGSA,M,3,12,02,25,06,24,19,,,,,,,2.3,1.5,1.8*3C
$GPRMC,025447.000,A,3402.1958,N,11829.3904,W,24.22,225.46,050516,,,A*47
$GPGGA,025448.000,3402.1913,N,11829.3966,W,1,06,1.5,75.3,M,-33.9,M,,0000*50
$GPGSA,M,3,12,02,25,06,24,19,,,,,,,2.3,1.5,1.8*3C
$GPGSV,3,1,10,12,80,340,46,02,75,034,43,25,42,317,38,06,28,043,39*7A
$GPGSV,3,2,10,24,26,212,41,19,18,072,28,05,30,151,48,29,21,285,34*7E
$GPGSV,3,3,10,46,45,145,33,20,04,189,*7D
$GPRMC,025448.000,A,3402.1913,N,11829.3966,W,24.07,226.57,050516,,,A*47
$GPGGA,025449.000,3402.1866,N,11829.4023,W,1,06,1.5,75.2,M,-33.9,M,,0000*5C
$GPGSA,M,3,12,02,25,06,24,19,,,,,,,2.3,1.5,1.8*3C
$GPRMC,025449.000,A,3402.1866,N,11829.4023,W,23.77,224.83,050516,,,A*41
$GPGGA,025450.000,3402.1820,N,11829.4081,W,1,07,1.2,75.0,M,-33.9,M,,0000*5A
$GPGSA,M,3,12,02,25,06,24,19,05,,,,,,2.1,1.2,1.8*3C
$GPRMC,025450.000,A,3402.1820,N,11829.4081,W,23.80,225.78,050516,,,A*4E
$GPGGA,025451.000,3402.1774,N,11829.4141,W,1,07,1.2,74.9,M,-33.9,M,,0000*50
$GPGSA,M,3,12,02,25,05,06,24,19,,,,,,2.1,1.2,1.8*3C
$GPRMC,025451.000,A,3402.1774,N,11829.4141,W,24.24,225.77,050516,,,A*4A
$GPGGA,025452.000,3402.1726,N,11829.4201,W,1,07,1.2,74.7,M,-33.9,M,,0000*5D
$GPGSA,M,3,12,02,25,05,06,24,19,,,,,,2.1,1.2,1.8*3C
$GPRMC,025452.000,A,3402.1726,N,11829.4201,W,24.81,225.65,050516,,,A*45
$GPGGA,025453.000,3402.1677,N,11829.4261,W,1,07,1.2,74.5,M,-33.9,M,,0000*5D
$GPGSA,M,3,12,02,25,05,06,24,19,,,,,,2.1,1.2,1.8*3C
$GPGSV,3,1,10,12,81,340,45,02,74,034,43,25,42,317,39,05,31,150,43*7D
$GPGSV,3,2,10,06,27,043,35,24,26,212,42,19,18,072,25,20,04,189,23*7A
$GPGSV,3,3,10,29,22,285,40,46,45,145,33*7B
$GPRMC,025453.000,A,3402.1677,N,11829.4261,W,25.41,225.79,050516,,,A*47
$GPGGA,025454.000,3402.1627,N,11829.4323,W,1,07,1.2,74.2,M,-33.9,M,,0000*5F
$GPGSA,M,3,12,02,25,05,06,24,19,,,,,,2.1,1.2,1.8*3C
$GPRMC,025454.000,A,3402.1627,N,11829.4323,W,25.95,225.83,050516,,,A*4E
$GPGGA,025455.000,3402.1576,N,11829.4387,W,1,07,1.2,74.1,M,-33.9,M,,0000*54
$GPGSA,M,3,12,02,25,05,06,24,19,,,,,,2.1,1.2,1.8*3C
$GPRMC,025455.000,A,3402.1576,N,11829.4387,W,26.40,226.26,050516,,,A*41
$GPGGA,025456.000,3402.1524,N,11829.4450,W,1,07,1.2,74.0,M,-33.9,M,,0000*5C
$GPGSA,M,3,12,02,25,05,06,24,19,,,,,,2.1,1.2,1.8*3C
$GPRMC,025456.000,A,3402.1524,N,11829.4450,W,26.81,225.12,050516,,,A*41
$GPGGA,025457.000,3402.1471,N,11829.4514,W,1,07,1.2,73.8,M,-33.9,M,,0000*52
$GPGSA,M,3,12,02,25,05,06,24,19,,,,,,2.1,1.2,1.8*3C
$GPRMC,025457.000,A,3402.1471,N,11829.4514,W,27.06,225.46,050516,,,A*4F
$GPGGA,025458.000,3402.1418,N,11829.4579,W,1,07,1.2,73.6,M,-33.9,M,,0000*57
$GPGSA,M,3,12,02,25,05,06,24,19,,,,,,2.1,1.2,1.8*3C
$GPGSV,3,1,10,12,81,340,46,02,74,034,42,25,42,317,40,05,31,150,45*77
$GPGSV,3,2,10,06,27,043,37,24,26,212,42,19,18,072,27,20,04,189,22*7B
$GPGSV,3,3,10,29,22,285,37,46,45,145,34*7C
$GPRMC,025458.000,A,3402.1418,N,11829.4579,W,27.14,225.58,050516,,,A*48
$GPGGA,025459.000,3402.1365,N,11829.4645,W,1,07,1.2,73.4,M,-33.9,M,,0000*55
$GPGSA,M,3,12,02,25,05,06,24,19,,,,,,2.1,1.2,1.8*3C
$GPRMC,025459.000,A,3402.1365,N,11829.4645,W,27.04,226.10,050516,,,A*46
$GPGGA,025500.000,3402.1313,N,11829.4710,W,1,07,1.2,73.3,M,-33.9,M,,0000*5F
$GPGSA,M,3,12,02,25,05,06,24,19,,,,,,2.1,1.2,1.8*3C
$GPRMC,025500.000,A,3402.1313,N,11829.4710,W,26.86,226.06,050516,,,A*47
$GPGGA,025501.000,3402.1261,N,11829.4775,W,1,07,1.2,73.1,M,-33.9,M,,0000*5B
$GPGSA,M,3,12,02,25,05,06,24,19,,,,,,2.1,1.2,1.8*3C
$GPRMC,025501.000,A,3402.1261,N,11829.4775,W,26.66,226.42,050516,,,A*4F
$GPGGA,025502.000,3402.1210,N,11829.4839,W,1,07,1.2,73.0,M,-33.9,M,,0000*58
$GPGSA,M,3,12,02,25,05,06,24,19,,,,,,2.1,1.2,1.8*3C
$GPRMC,025502.000,A,3402.1210,N,11829.4839,W,26.29,226.01,050516,,,A*41
$GPGGA,025503.000,3402.1160,N,11829.4901,W,1,07,1.2,72.8,M,-33.9,M,,0000*5E
$GPGSA,M,3,12,02,25,05,06,24,19,,,,,,2.1,1.2,1.8*3C
$GPGSV,3,1,10,12,81,340,47,02,74,034,42,25,42,317,41,05,31,150,47*75
$GPGSV,3,2,10,06,27,043,38,24,26,212,43,19,18,072,27,20,04,189,23*74
$GPGSV,3,3,10,29,22,285,33,46,45,145,33*7F
$GPRMC,025503.000,A,3402.1160,N,11829.4901,W,25.49,225.87,050516,,,A*46
$GPGGA,025504.000,3402.1112,N,11829.4961,W,1,07,1.2,72.7,M,-33.9,M,,0000*55
$GPGSA,M,3,12,02,25,05,06,24,19,,,,,,2.1,1.2,1.8*3C
$GPRMC,025504.000,A,3402.1112,N,11829.4961,W,24.31,225.72,050516,,,A*46
$GPGGA,025505.000,3402.1066,N,11829.5018,W,1,07,1.2,72.6,M,-33.9,M,,0000*51
$GPGSA,M,3,12,02,25,05,06,24,19,,,,,,2.1,1.2,1.8*3C
$GPRMC,025505.000,A,3402.1066,N,11829.5018,W,23.46,225.46,050516,,,A*43
$GPGGA,025506.000,3402.1021,N,11829.5073,W,1,07,1.2,72.7,M,-33.9,M,,0000*5D
$GPGSA,M,3,12,02,25,05,06,24,19,,,,,,2.1,1.2,1.8*3C
$GPRMC,025506.000,A,3402.1021,N,11829.5073,W,22.41,225.51,050516,,,A*4E
$GPGGA,025507.000,3402.0978,N,11829.5126,W,1,07,1.2,72.8,M,-33.9,M,,0000*56
$GPGSA,M,3,12,02,25,05,06,24,19,,,,,,2.1,1.2,1.8*3C
$GPRMC,025507.000,A,3402.0978,N,11829.5126,W,21.12,225.81,050516,,,A*42
$GPGGA,025508.000,3402.0939,N,11829.5175,W,1,07,1.2,72.9,M,-33.9,M,,0000*5B
$GPGSA,M,3,12,02,25,05,06,24,19,,,,,,2.1,1.2,1.8*3C
$GPGSV,3,1,10,12,81,340,46,02,74,034,42,25,42,317,39,05,31,150,46*7A
$GPGSV,3,2,10,06,27,043,38,24,26,212,43,19,18,072,29,20,04,189,26*7F
$GPGSV,3,3,10,29,22,285,35,46,45,145,34*7E
$GPRMC,025508.000,A,3402.0939,N,11829.5175,W,19.39,225.73,050516,,,A*41
$GPGGA,025509.000,3402.0904,N,11829.5218,W,1,07,1.2,72.8,M,-33.9,M,,0000*5D
$GPGSA,M,3,12,02,25,05,06,24,19,,,,,,2.1,1.2,1.8*3C
$GPRMC,025509.000,A,3402.0904,N,11829.5218,W,17.05,225.71,050516,,,A*45
$GPGGA,025510.000,3402.0875,N,11829.5255,W,1,06,1.3,72.8,M,-33.9,M,,0000*5B
$GPGSA,M,3,12,02,25,05,06,24,,,,,,,2.3,1.3,2.0*3C
$GPRMC,025510.000,A,3402.0875,N,11829.5255,W,14.08,225.61,050516,,,A*4C
$GPGGA,025511.000,3402.0851,N,11829.5283,W,1,06,1.3,72.8,M,-33.9,M,,0000*57
$GPGSA,M,3,12,02,25,05,06,24,,,,,,,2.3,1.3,2.0*3C
$GPRMC,025511.000,A,3402.0851,N,11829.5283,W,10.95,225.19,050516,,,A*4F
$GPGGA,025512.000,3402.0833,N,11829.5304,W,1,06,1.3,72.9,M,-33.9,M,,0000*5F
$GPGSA,M,3,12,02,25,05,06,24,,,,,,,2.3,1.3,2.0*3C
$GPRMC,025512.000,A,3402.0833,N,11829.5304,W,7.60,225.25,050516,,,A*75
$GPGGA,025513.000,3402.0823,N,11829.5316,W,1,07,1.2,73.0,M,-33.9,M,,0000*54
$GPGSA,M,3,12,02,25,05,06,24,19,,,,,,2.1,1.2,1.8*3C
$GPGSV,3,1,10,12,81,340,46,02,74,034,42,25,42,317,37,05,31,150,39*7C
$GPGSV,3,2,10,06,27,043,38,24,26,212,43,19,18,072,31,20,04,189,25*75
$GPGSV,3,3,10,29,22,285,27,46,45,145,34*7D
$GPRMC,025513.000,A,3402.0823,N,11829.5316,W,4.07,225.29,050516,,,A*78
$GPGGA,025514.000,3402.0819,N,11829.5322,W,1,07,1.2,73.0,M,-33.9,M,,0000*5D
$GPGSA,M,3,12,02,25,05,06,24,19,,,,,,2.1,1.2,1.8*3C
$GPRMC,025514.000,A,3402.0819,N,11829.5322,W,1.16,225.29,050516,,,A*74
$GPGGA,025515.000,3402.0818,N,11829.5322,W,1,07,1.2,73.0,M,-33.9,M,,0000*5D
$GPGSA,M,3,12,02,25,05,06,24,19,,,,,,2.1,1.2,1.8*3C
$GPRMC,025515.000,A,3402.0818,N,11829.5322,W,0.05,225.29,050516,,,A*77
$GPGGA,025516.000,3402.0818,N,11829.5322,W,1,07,1.2,73.0,M,-33.9,M,,0000*5E
$GPGSA,M,3,12,02,25,05,06,24,19,,,,,,2.1,1.2,1.8*3C
$GPRMC,025516.000,A,3402.0818,N,11829.5322,W,0.00,225.29,050516,,,A*71
$GPGGA,025517.000,3402.0818,N,11829.5322,W,1,07,1.2,73.0,M,-33.9,M,,0000*5F
$GPGSA,M,3,12,02,25,05,06,24,19,,,,,,2.1,1.2,1.8*3C
$GPRMC,025517.000,A,3402.0818,N,11829.5322,W,0.00,225.29,050516,,,A*70
$GPGGA,025518.000,3402.0818,N,11829.5322,W,1,07,1.2,73.0,M,-33.9,M,,0000*50
$GPGSA,M,3,12,02,25,05,06,24,19,,,,,,2.1,1.2,1.8*3C
$GPGSV,3,1,10,12,81,340,46,02,74,034,43,25,42,317,24,05,31,150,44*75
$GPGSV,3,2,10,06,27,043,38,24,26,212,43,19,18,072,32,29,22,285,27*76
$GPGSV,3,3,10,46,45,145,35,20,04,189,*7B
$GPRMC,025518.000,A,3402.0818,N,11829.5322,W,0.00,225.29,050516,,,A*7F
$GPGGA,025519.000,3402.0818,N,11829.5322,W,1,07,1.2,73.0,M,-33.9,M,,0000*51
$GPGSA,M,3,12,02,25,05,06,24,19,,,,,,2.1,1.2,1.8*3C
$GPRMC,025519.000,A,3402.0818,N,11829.5322,W,0.00,225.29,050516,,,A*7E
$GPGGA,025520.000,3402.0818,N,11829.5322,W,1,07,1.2,73.0,M,-33.9,M,,0000*5B
$GPGSA,M,3,12,02,25,05,06,24,19,,,,,,2.1,1.2,1.8*3C
$GPRMC,025520.000,A,3402.0818,N,11829.5322,W,0.00,225.29,050516,,,A*74
$GPGGA,025521.000,3402.0819,N,11829.5321,W,1,07,1.2,73.2,M,-33.9,M,,0000*5A
$GPGSA,M,3,12,02,25,05,06,24,19,,,,,,2.1,1.2,1.8*3C
$GPRMC,025521.000,A,3402.0819,N,11829.5321,W,0.25,225.29,050516,,,A*70
$GPGGA,025522.000,3402.0818,N,11829.5322,W,1,07,1.2,73.3,M,-33.9,M,,0000*5A
$GPGSA,M,3,12,02,25,05,06,24,19,,,,,,2.1,1.2,1.8*3C
$GPRMC,025522.000,A,3402.0818,N,11829.5322,W,1.00,225.29,050516,,,A*77
$GPGGA,025523.000,3402.0815,N,11829.5327,W,1,07,1.2,73.5,M,-33.9,M,,0000*55
$GPGSA,M,3,12,02,25,05,06,24,19,,,,,,2.1,1.2,1.8*3C
$GPGSV,3,1,10,12,81,340,46,02,74,033,43,25,42,317,37,05,31,150,46*72
$GPGSV,3,2,10,06,27,043,38,24,26,212,43,19,18,073,32,29,22,285,26*76
$GPGSV,3,3,10,46,45,145,35,20,04,189,*7B
$GPRMC,025523.000,A,3402.0815,N,11829.5327,W,3.03,225.89,050516,,,A*75
$GPGGA,025524.000,3402.0806,N,11829.5338,W,1,07,1.2,73.6,M,-33.9,M,,0000*5D
$GPGSA,M,3,12,02,25,05,06,24,19,,,,,,2.1,1.2,1.8*3C
$GPRMC,025524.000,A,3402.0806,N,11829.5338,W,6.16,225.57,050516,,,A*7C
$GPGGA,025525.000,3402.0792,N,11829.5356,W,1,07,1.2,73.7,M,-33.9,M,,0000*57
$GPGSA,M,3,12,02,25,05,06,24,19,,,,,,2.1,1.2,1.8*3C
$GPRMC,025525.000,A,3402.0792,N,11829.5356,W,8.77,227.14,050516,,,A*7B
$GPGGA,025526.000,3402.0773,N,11829.5380,W,1,07,1.2,73.7,M,-33.9,M,,0000*50
$GPGSA,M,3,12,02,25,05,06,24,19,,,,,,2.1,1.2,1.8*3C
$GPRMC,025526.000,A,3402.0773,N,11829.5380,W,11.00,228.14,050516,,,A*4B
$GPGGA,025527.000,3402.0751,N,11829.5409,W,1,07,1.2,73.5,M,-33.9,M,,0000*55
$GPGSA,M,3,12,02,25,05,06,24,19,,,,,,2.1,1.2,1.8*3C
$GPRMC,025527.000,A,3402.0751,N,11829.5409,W,12.88,226.85,050516,,,A*49
$GPGGA,025528.000,3402.0725,N,11829.5441,W,1,07,1.2,73.4,M,-33.9,M,,0000*54
$GPGSA,M,3,12,02,25,05,06,24,19,,,,,,2.1,1.2,1.8*3C
$GPGSV,3,1,10,12,81,340,47,02,74,033,42,25,42,317,38,05,31,150,48*73
$GPGSV,3,2,10,06,27,043,39,24,26,212,42,19,18,073,24,29,22,285,39*7F
$GPGSV,3,3,10,46,45,145,31,20,04,189,*7F
$GPRMC,025528.000,A,3402.0725,N,11829.5441,W,14.14,226.22,050516,,,A*47
$GPGGA,025529.000,3402.0697,N,11829.5475,W,1,07,1.2,73.3,M,-33.9,M,,0000*5D
$GPGSA,M,3,12,02,25,05,06,24,19,,,,,,2.1,1.2,1.8*3C
$GPRMC,025529.000,A,3402.0697,N,11829.5475,W,14.41,225.48,050516,,,A*46
$GPGGA,025530.000,3402.0668,N,11829.5511,W,1,07,1.2,73.3,M,-33.9,M,,0000*56
$GPGSA,M,3,12,02,25,05,06,24,19,,,,,,2.1,1.2,1.8*3C
$GPRMC,025530.000,A,3402.0668,N,11829.5511,W,15.41,225.92,050516,,,A*4B
$GPGGA,025531.000,3402.0636,N,11829.5549,W,1,07,1.2,73.4,M,-33.9,M,,0000*56
$GPGSA,M,3,12,02,25,05,06,24,19,,,,,,2.1,1.2,1.8*3C
$GPRMC,025531.000,A,3402.0636,N,11829.5549,W,16.57,224.70,050516,,,A*45
$GPGGA,025532.000,3402.0602,N,11829.5590,W,1,07,1.2,73.2,M,-33.9,M,,0000*50
$GPGSA,M,3,12,02,25,05,06,24,19,,,,,,2.1,1.2,1.8*3C
$GPRMC,025532.000,A,3402.0602,N,11829.5590,W,17.82,225.11,050516,,,A*4A
$GPGGA,025533.000,3402.0565,N,11829.5634,W,1,07,1.2,73.1,M,-33.9,M,,0000*5D
$GPGSA,M,3,12,02,25,05,06,24,19,,,,,,2.1,1.2,1.8*3C
$GPGSV,3,1,10,12,81,340,42,02,74,033,42,25,42,317,38,05,31,150,41*7F
$GPGSV,3,2,10,06,27,043,38,24,26,212,42,19,18,073,28,20,04,189,30*79
$GPGSV,3,3,10,29,22,285,25,46,45,145,35*7E
$GPRMC,025533.000,A,3402.0565,N,11829.5634,W,18.99,225.38,050516,,,A*4A
$GPGGA,025534.000,3402.0529,N,11829.5682,W,1,07,1.2,73.0,M,-33.9,M,,0000*5E
$GPGSA,M,3,12,02,25,05,06,24,19,,,,,,2.1,1.2,1.8*3C
$GPRMC,025534.000,A,3402.0529,N,11829.5682,W,19.41,226.16,050516,,,A*43
$GPGGA,025535.000,3402.0491,N,11829.5731,W,1,07,1.2,72.8,M,-33.9,M,,0000*5D
$GPGSA,M,3,12,02,25,05,06,24,19,,,,,,2.1,1.2,1.8*3C
$GPRMC,025535.000,A,3402.0491,N,11829.5731,W,20.04,225.12,050516,,,A*45
$GPGGA,025536.000,3402.0452,N,11829.5779,W,1,07,1.2,72.6,M,-33.9,M,,0000*53
$GPGSA,M,3,12,02,25,05,06,24,19,,,,,,2.1,1.2,1.8*3C
$GPRMC,025536.000,A,3402.0452,N,11829.5779,W,19.92,225.30,050516,,,A*40
$GPGGA,025537.000,3402.0413,N,11829.5827,W,1,07,1.2,72.3,M,-33.9,M,,0000*56
$GPGSA,M,3,12,02,25,05,06,24,19,,,,,,2.1,1.2,1.8*3C
$GPRMC,025537.000,A,3402.0413,N,11829.5827,W,19.74,225.54,050516,,,A*4A
$GPGGA,025538.000,3402.0374,N,11829.5874,W,1,07,1.2,72.2,M,-33.9,M,,0000*58
$GPGSA,M,3,12,02,25,05,06,24,19,,,,,,2.1,1.2,1.8*3C
$GPGSV,3,1,10,12,81,340,39,02,74,033,36,25,42,317,40,05,31,150,35*7C
$GPGSV,3,2,10,06,27,043,36,24,26,212,43,19,18,073,26,20,04,189,26*7F
$GPGSV,3,3,10,29,22,285,31,46,45,145,33*7D
$GPRMC,025538.000,A,3402.0374,N,11829.5874,W,19.61,225.08,050516,,,A*48
$GPGGA,025539.000,3402.0335,N,11829.5921,W,1,07,1.2,72.2,M,-33.9,M,,0000*5D
$GPGSA,M,3,12,02,25,05,06,24,19,,,,,,2.1,1.2,1.8*3C
$GPRMC,025539.000,A,3402.0335,N,11829.5921,W,19.72,225.09,050516,,,A*4E
$GPGGA,025540.000,3402.0296,N,11829.5968,W,1,07,1.2,72.0,M,-33.9,M,,0000*54
$GPGSA,M,3,12,02,25,05,06,24,19,,,,,,2.1,1.2,1.8*3C
$GPRMC,025540.000,A,3402.0296,N,11829.5968,W,19.82,225.58,050516,,,A*4E
$GPGGA,025541.000,3402.0257,N,11829.6015,W,1,07,1.2,71.8,M,-33.9,M,,0000*53
$GPGSA,M,3,12,02,25,05,06,24,19,,,,,,2.1,1.2,1.8*3C
$GPRMC,025541.000,A,3402.0257,N,11829.6015,W,19.86,225.82,050516,,,A*41
$GPGGA,025542.000,3402.0218,N,11829.6063,W,1,07,1.2,71.6,M,-33.9,M,,0000*54
$GPGSA,M,3,12,02,25,05,06,24,19,,,,,,2.1,1.2,1.8*3C
$GPRMC,025542.000,A,3402.0218,N,11829.6063,W,19.97,226.16,050516,,,A*46
$GPGGA,025543.000,3402.0179,N,11829.6113,W,1,07,1.2,71.2,M,-33.9,M,,0000*53
$GPGSA,M,3,12,02,25,05,06,24,19,,,,,,2.1,1.2,1.8*3C
$GPGSV,3,1,10,12,81,340,47,02,74,033,42,25,42,317,36,05,31,150,47*72
$GPGSV,3,2,10,06,27,043,37,24,26,212,43,19,18,073,26,29,22,285,38*73
$GPGSV,3,3,10,46,45,145,32,20,04,189,*7C
$GPRMC,025543.000,A,3402.0179,N,11829.6113,W,20.78,226.40,050516,,,A*4D
$GPGGA,025544.000,3402.0138,N,11829.6165,W,1,07,1.2,70.7,M,-33.9,M,,0000*54
$GPGSA,M,3,12,02,25,05,06,24,19,,,,,,2.1,1.2,1.8*3C
$GPRMC,025544.000,A,3402.0138,N,11829.6165,W,21.54,227.07,050516,,,A*43
$GPGGA,025545.000,3402.0096,N,11829.6216,W,1,07,1.2,70.3,M,-33.9,M,,0000*53
$GPGSA,M,3,12,02,25,05,06,24,19,,,,,,2.1,1.2,1.8*3C
$GPRMC,025545.000,A,3402.0096,N,11829.6216,W,21.67,224.88,050516,,,A*44
$GPGGA,025546.000,3402.0053,N,11829.6269,W,1,07,1.2,70.0,M,-33.9,M,,0000*52
$GPGSA,M,3,12,02,25,05,06,24,19,,,,,,2.1,1.2,1.8*3C
$GPRMC,025546.000,A,3402.0053,N,11829.6269,W,21.83,226.31,050516,,,A*4C
$GPGGA,025547.000,3402.0011,N,11829.6322,W,1,07,1.2,69.5,M,-33.9,M,,0000*56
$GPGSA,M,3,12,02,25,05,06,24,19,,,,,,2.1,1.2,1.8*3C
$GPRMC,025547.000,A,3402.0011,N,11829.6322,W,21.87,226.35,050516,,,A*45
$GPGGA,025548.000,3401.9968,N,11829.6375,W,1,07,1.2,69.4,M,-33.9,M,,0000*57
$GPGSA,M,3,12,02,25,05,06,24,19,,,,,,2.1,1.2,1.8*3C
$GPGSV,3,1,10,12,81,340,44,02,74,033,42,25,42,317,41,05,31,150,37*76
$GPGSV,3,2,10,06,27,043,31,24,26,212,43,19,18,073,22,29,22,285,32*7B
$GPGSV,3,3,10,46,45,145,31,20,04,189,*7F
$GPRMC,025548.000,A,3401.9968,N,11829.6375,W,21.93,226.81,050516,,,A*4F
$GPGGA,025549.000,3401.9925,N,11829.6428,W,1,07,1.2,69.2,M,-33.9,M,,0000*56
$GPGSA,M,3,12,02,25,05,06,24,19,,,,,,2.1,1.2,1.8*3C
$GPRMC,025549.000,A,3401.9925,N,11829.6428,W,21.88,225.77,050516,,,A*48
$GPGGA,025550.000,3401.9883,N,11829.6481,W,1,07,1.2,68.9,M,-33.9,M,,0000*5A
$GPGSA,M,3,12,02,25,05,06,24,19,,,,,,2.1,1.2,1.8*3C
$GPRMC,025550.000,A,3401.9883,N,11829.6481,W,21.81,225.90,050516,,,A*4E
$GPGGA,025551.000,3401.9842,N,11829.6531,W,1,07,1.2,68.5,M,-33.9,M,,0000*50
$GPGSA,M,3,12,02,25,05,06,24,19,,,,,,2.1,1.2,1.8*3C
$GPRMC,025551.000,A,3401.9842,N,11829.6531,W,20.05,225.76,050516,,,A*4D
$GPGGA,025552.000,3401.9810,N,11829.6569,W,1,07,1.2,68.5,M,-33.9,M,,0000*59
$GPGSA,M,3,12,02,25,05,06,24,19,,,,,,2.1,1.2,1.8*3C
$GPRMC,025552.000,A,3401.9810,N,11829.6569,W,12.34,225.45,050516,,,A*47
$GPGGA,025553.000,3401.9792,N,11829.6590,W,1,07,1.2,68.6,M,-33.9,M,,0000*58
$GPGSA,M,3,12,02,25,05,06,24,19,,,,,,2.1,1.2,1.8*3C
$GPGSV,3,1,10,12,81,340,45,02,74,033,42,25,42,317,42,05,31,150,47*73
$GPGSV,3,2,10,06,27,043,32,24,26,212,43,19,18,073,25,29,22,285,37*7A
$GPGSV,3,3,10,46,45,145,33,20,04,189,*7D
$GPRMC,025553.000,A,3401.9792,N,11829.6590,W,6.25,224.93,050516,,,A*7A
$GPGGA,025554.000,3401.9784,N,11829.6600,W,1,07,1.2,68.8,M,-33.9,M,,0000*5C
$GPGSA,M,3,12,02,25,05,06,24,19,,,,,,2.1,1.2,1.8*3C
$GPRMC,025554.000,A,3401.9784,N,11829.6600,W,3.15,224.78,050516,,,A*73
$GPGGA,025555.000,3401.9780,N,11829.6605,W,1,07,1.2,68.9,M,-33.9,M,,0000*5D
$GPGSA,M,3,12,02,25,05,06,24,19,,,,,,2.1,1.2,1.8*3C
$GPRMC,025555.000,A,3401.9780,N,11829.6605,W,1.75,224.77,050516,,,A*78
$GPGGA,025556.000,3401.9777,N,11829.6607,W,2,06,1.2,69.1,M,-33.9,M,2.0,0000*73
$GPGSA,M,3,02,25,05,06,24,19,,,,,,,2.5,1.2,2.2*32
$GPRMC,025556.000,A,3401.9777,N,11829.6607,W,1.12,224.77,050516,,,D*75
$GPGGA,025557.000,3401.9775,N,11829.6609,W,2,06,1.2,69.3,M,-33.9,M,3.0,0000*7D
$GPGSA,M,3,02,25,05,06,24,19,,,,,,,2.5,1.2,2.2*32
$GPRMC,025557.000,A,3401.9775,N,11829.6609,W,1.39,224.46,050516,,,D*73
