$GPGSV,3,1,11,12,89,357,44,02,67,034,38,25,49,316,35,06,21,045,24*7D
$GPGSV,3,2,11,24,20,208,23,51,48,160,39,05,37,145,37,19,14,078,26*71
$GPGSV,3,3,11,29,26,291,45,20,10,187,,31,02,326,*47
$GPRMC,030637.000,A,3402.6781,N,11829.6983,W,0.71,134.69,060516,,,D*79
$GPGGA,030638.000,3402.6782,N,11829.6984,W,2,06,1.4,112.7,M,-33.9,M,,0000*6F
$GPGSA,M,3,12,02,25,06,24,51,,,,,,,2.2,1.4,1.7*3F
$GPRMC,030638.000,A,3402.6782,N,11829.6984,W,0.20,134.69,060516,,,D*76
$GPGGA,030639.000,3402.6783,N,11829.6984,W,2,06,1.4,112.6,M,-33.9,M,3.0,0000*43
$GPGSA,M,3,12,02,25,06,24,51,,,,,,,2.2,1.4,1.7*3F
$GPRMC,030639.000,A,3402.6783,N,11829.6984,W,0.37,134.69,060516,,,D*70
$GPGGA,030640.000,3402.6787,N,11829.6985,W,2,06,1.4,113.1,M,-33.9,M,4.0,0000*49
$GPGSA,M,3,12,02,25,06,24,51,,,,,,,2.2,1.4,1.7*3F
$GPRMC,030640.000,A,3402.6787,N,11829.6985,W,0.56,134.69,060516,,,D*7C
$GPGGA,030641.000,3402.6787,N,11829.6985,W,2,05,1.9,113.5,M,-33.9,M,5.0,0000*43
$GPGSA,M,3,12,02,25,06,51,,,,,,,,3.4,1.9,2.8*3F
$GPRMC,030641.000,A,3402.6787,N,11829.6985,W,0.01,134.69,060516,,,D*7F
$GPGGA,030642.000,3402.6790,N,11829.6986,W,2,05,1.9,114.2,M,-33.9,M,,0000*6E
$GPGSA,M,3,12,02,25,06,51,,,,,,,,3.4,1.9,2.8*3F
$GPGSV,3,1,11,12,89,357,44,02,67,034,40,25,49,316,37,06,21,045,24*70
$GPGSV,3,2,11,51,48,160,42,05,37,145,38,19,14,078,23,24,20,208,05*73
$GPGSV,3,3,11,29,26,291,45,20,10,187,,31,02,326,*47
$GPRMC,030642.000,A,3402.6790,N,11829.6986,W,0.04,134.69,060516,,,D*7C
$GPGGA,030643.000,3402.6792,N,11829.6987,W,2,05,1.9,115.1,M,-33.9,M,,0000*6E
$GPGSA,M,3,12,02,25,06,51,,,,,,,,3.4,1.9,2.8*3F
$GPRMC,030643.000,A,3402.6792,N,11829.6987,W,0.30,134.69,060516,,,D*79
$GPGGA,030644.000,3402.6792,N,11829.6989,W,2,06,1.4,115.3,M,-33.9,M,,0000*6B
$GPGSA,M,3,12,02,25,06,24,51,,,,,,,2.2,1.4,1.7*3F
$GPRMC,030644.000,A,3402.6792,N,11829.6989,W,0.64,134.69,060516,,,D*71
$GPGGA,030645.000,3402.6789,N,11829.6990,W,2,05,1.8,114.9,M,-33.9,M,3.0,0000*41
$GPGSA,M,3,12,02,25,06,24,,,,,,,,2.5,1.8,1.8*3F
$GPRMC,030645.000,A,3402.6789,N,11829.6990,W,0.83,134.69,060516,,,D*7B
$GPGGA,030646.000,3402.6787,N,11829.6990,W,1,05,1.7,114.7,M,-33.9,M,,0000*63
$GPGSA,M,3,12,02,25,24,19,,,,,,,,2.6,1.7,2.0*36
$GPRMC,030646.000,A,3402.6787,N,11829.6990,W,0.49,134.69,060516,,,A*75
$GPGGA,030647.000,3402.6787,N,11829.6990,W,2,06,1.4,114.6,M,-33.9,M,5.0,0000*4B
$GPGSA,M,3,12,02,25,06,24,51,,,,,,,2.2,1.4,1.7*3F
$GPGSV,3,1,11,12,89,357,39,02,67,034,41,25,49,316,29,06,21,045,30*71
$GPGSV,3,2,11,24,20,208,23,51,48,160,30,05,37,145,33,19,14,078,32*79
$GPGSV,3,3,11,29,26,291,39,20,10,187,,31,02,326,*4C
$GPRMC,030647.000,A,3402.6787,N,11829.6990,W,0.22,134.69,060516,,,D*7C
$GPGGA,030648.000,3402.6787,N,11829.6988,W,2,06,1.4,113.3,M,-33.9,M,6.0,0000*4C
$GPGSA,M,3,12,02,25,06,24,51,,,,,,,2.2,1.4,1.7*3F
$GPRMC,030648.000,A,3402.6787,N,11829.6988,W,0.27,134.69,060516,,,D*7F
$GPGGA,030649.000,3402.6786,N,11829.6985,W,2,06,1.4,111.4,M,-33.9,M,7.0,0000*45
$GPGSA,M,3,12,02,25,06,24,51,,,,,,,2.2,1.4,1.7*3F
$GPRMC,030649.000,A,3402.6786,N,11829.6985,W,0.09,134.69,060516,,,D*7E
$GPGGA,030650.000,3402.6788,N,11829.6985,W,2,06,1.4,110.9,M,-33.9,M,8.0,0000*40
$GPGSA,M,3,12,02,25,06,24,51,,,,,,,2.2,1.4,1.7*3F
$GPRMC,030650.000,A,3402.6788,N,11829.6985,W,0.67,134.69,060516,,,D*70
$GPGGA,030651.000,3402.6790,N,11829.6993,W,2,06,1.4,109.6,M,-33.9,M,9.0,0000*49
$GPGSA,M,3,12,02,25,06,24,51,,,,,,,2.2,1.4,1.7*3F
$GPRMC,030651.000,A,3402.6790,N,11829.6993,W,1.88,253.34,060516,,,D*75
$GPGGA,030652.000,3402.6792,N,11829.6998,W,2,06,1.4,109.1,M,-33.9,M,10.0,0000*7C
$GPGSA,M,3,12,02,25,06,24,51,,,,,,,2.2,1.4,1.7*3F
$GPGSV,3,1,11,12,89,357,32,02,67,034,41,25,49,316,39,06,21,045,34*7F
$GPGSV,3,2,11,24,20,208,23,51,48,160,28,05,37,145,33,19,14,078,28*7B
$GPGSV,3,3,11,20,10,187,21,29,26,291,34,31,02,326,*42
$GPRMC,030652.000,A,3402.6792,N,11829.6998,W,2.08,278.48,060516,,,D*76
$GPGGA,030653.000,3402.6794,N,11829.7000,W,2,06,1.4,106.9,M,-33.9,M,11.0,0000*74
$GPGSA,M,3,12,02,25,06,24,51,,,,,,,2.2,1.4,1.7*3F
$GPRMC,030653.000,A,3402.6794,N,11829.7000,W,2.01,285.47,060516,,,D*7C
$GPGGA,030654.000,3402.6799,N,11829.7006,W,2,06,1.4,106.1,M,-33.9,M,12.0,0000*73
$GPGSA,M,3,12,02,25,06,24,51,,,,,,,2.2,1.4,1.7*3F
$GPRMC,030654.000,A,3402.6799,N,11829.7006,W,2.54,294.69,060516,,,D*7C
$GPGGA,030655.000,3402.6804,N,11829.7012,W,2,06,1.4,105.2,M,-33.9,M,13.0,0000*7D
$GPGSA,M,3,12,02,25,06,24,51,,,,,,,2.2,1.4,1.7*3F
$GPRMC,030655.000,A,3402.6804,N,11829.7012,W,2.45,298.41,060516,,,D*75
$GPGGA,030656.000,3402.6809,N,11829.7018,W,2,06,1.4,104.5,M,-33.9,M,14.0,0000*78
$GPGSA,M,3,12,02,25,06,24,51,,,,,,,2.2,1.4,1.7*3F
$GPRMC,030656.000,A,3402.6809,N,11829.7018,W,2.29,299.61,060516,,,D*78
$GPGGA,030657.000,3402.6814,N,11829.7026,W,2,05,1.8,104.7,M,-33.9,M,15.0,0000*74
$GPGSA,M,3,12,02,25,06,24,,,,,,,,2.5,1.8,1.8*3F
$GPGSV,3,1,11,12,89,357,43,02,67,034,38,25,49,316,37,06,21,045,31*7C
$GPGSV,3,2,11,24,20,208,23,05,37,145,28,19,14,078,27,20,10,187,20*74
$GPGSV,3,3,11,29,26,291,33,51,48,160,28,31,02,326,*4E
$GPRMC,030657.000,A,3402.6814,N,11829.7026,W,2.11,301.24,060516,,,D*72
$GPGGA,030658.000,3402.6818,N,11829.7032,W,2,06,1.4,104.7,M,-33.9,M,16.0,0000*7E
$GPGSA,M,3,12,02,25,06,24,51,,,,,,,2.2,1.4,1.7*3F
$GPRMC,030658.000,A,3402.6818,N,11829.7032,W,1.97,300.62,060516,,,D*7A
$GPGGA,030659.000,3402.6822,N,11829.7039,W,2,06,1.4,104.4,M,-33.9,M,17.0,0000*7F
$GPGSA,M,3,12,02,25,06,24,51,,,,,,,2.2,1.4,1.7*3F
$GPRMC,030659.000,A,3402.6822,N,11829.7039,W,2.12,298.69,060516,,,D*7C
$GPGGA,030700.000,3402.6826,N,11829.7045,W,2,06,1.4,104.2,M,-33.9,M,18.0,0000*74
$GPGSA,M,3,12,02,25,06,24,51,,,,,,,2.2,1.4,1.7*3F
$GPRMC,030700.000,A,3402.6826,N,11829.7045,W,2.29,299.25,060516,,,D*7F
$GPGGA,030701.000,3402.6831,N,11829.7051,W,1,07,1.3,103.9,M,-33.9,M,,0000*68
$GPGSA,M,3,12,02,25,06,24,19,51,,,,,,2.0,1.3,1.5*30
$GPRMC,030701.000,A,3402.6831,N,11829.7051,W,2.59,303.84,060516,,,A*76
$GPGGA,030702.000,3402.6834,N,11829.7052,W,1,07,1.3,102.2,M,-33.9,M,,0000*67
$GPGSA,M,3,12,02,25,06,24,19,51,,,,,,2.0,1.3,1.5*30
$GPGSV,3,1,11,12,89,357,43,02,67,034,38,25,49,316,37,06,21,045,40*7A
$GPGSV,3,2,11,24,20,208,23,19,14,078,22,51,48,160,36,05,37,145,28*74
$GPGSV,3,3,11,20,10,187,19,29,26,291,40,31,02,326,*4A
$GPRMC,030702.000,A,3402.6834,N,11829.7052,W,1.82,305.70,060516,,,A*7B
$GPGGA,030703.000,3402.6836,N,11829.7054,W,1,07,1.3,101.0,M,-33.9,M,,0000*63
$GPGSA,M,3,12,02,25,06,24,19,51,,,,,,2.0,1.3,1.5*30
$GPRMC,030703.000,A,3402.6836,N,11829.7054,W,1.65,306.51,060516,,,A*77
$GPGGA,030704.000,3402.6835,N,11829.7058,W,1,07,1.3,99.4,M,-33.9,M,,0000*5F
$GPGSA,M,3,12,02,25,06,24,19,51,,,,,,2.0,1.3,1.5*30
$GPRMC,030704.000,A,3402.6835,N,11829.7058,W,2.18,304.76,060516,,,A*71
$GPGGA,030705.000,3402.6838,N,11829.7066,W,1,06,1.9,99.4,M,-33.9,M,,0000*55
$GPGSA,M,3,12,02,25,06,19,51,,,,,,,3.2,1.9,2.6*3F
$GPRMC,030705.000,A,3402.6838,N,11829.7066,W,3.00,297.22,060516,,,A*72
$GPGGA,030706.000,3402.6842,N,11829.7076,W,1,06,1.9,99.6,M,-33.9,M,,0000*58
$GPGSA,M,3,12,02,25,06,19,51,,,,,,,3.2,1.9,2.6*3F
$GPRMC,030706.000,A,3402.6842,N,11829.7076,W,3.24,290.51,060516,,,A*78
$GPGGA,030707.000,3402.6842,N,11829.7086,W,1,06,1.9,99.8,M,-33.9,M,,0000*58
$GPGSA,M,3,12,02,25,06,19,51,,,,,,,3.2,1.9,2.6*3F
$GPGSV,3,1,11,12,89,357,44,02,67,034,40,25,49,316,41,06,21,045,30*74
$GPGSV,3,2,11,19,14,078,24,51,48,160,32,05,37,145,30,20,10,187,19*75
$GPGSV,3,3,11,24,20,208,28,29,26,291,40,31,02,326,*4B
$GPRMC,030707.000,A,3402.6842,N,11829.7086,W,3.26,281.11,060516,,,A*70
$GPGGA,030708.000,3402.6839,N,11829.7097,W,1,06,1.9,99.9,M,-33.9,M,,0000*5A
$GPGSA,M,3,12,02,25,06,19,51,,,,,,,3.2,1.9,2.6*3F
$GPRMC,030708.000,A,3402.6839,N,11829.7097,W,3.37,266.21,060516,,,A*79
$GPGGA,030709.000,3402.6834,N,11829.7108,W,1,06,1.9,99.8,M,-33.9,M,,0000*50
$GPGSA,M,3,12,02,25,06,19,51,,,,,,,3.2,1.9,2.6*3F
$GPRMC,030709.000,A,3402.6834,N,11829.7108,W,4.13,250.86,060516,,,A*7B
$GPGGA,030710.000,3402.6821,N,11829.7123,W,1,07,1.3,98.7,M,-33.9,M,,0000*50
$GPGSA,M,3,12,02,25,06,24,19,51,,,,,,2.0,1.3,1.5*30
$GPRMC,030710.000,A,3402.6821,N,11829.7123,W,5.48,241.74,060516,,,A*7C
$GPGGA,030711.000,3402.6802,N,11829.7145,W,1,07,1.3,97.0,M,-33.9,M,,0000*58
$GPGSA,M,3,12,02,25,06,24,19,51,,,,,,2.0,1.3,1.5*30
$GPRMC,030711.000,A,3402.6802,N,11829.7145,W,7.35,237.12,060516,,,A*75
$GPGGA,030712.000,3402.6782,N,11829.7172,W,1,07,1.3,95.9,M,-33.9,M,,0000*53
$GPGSA,M,3,12,02,25,06,24,19,51,,,,,,2.0,1.3,1.5*30
$GPGSV,3,1,11,12,89,357,43,02,67,034,40,25,49,316,41,06,21,045,32*71
$GPGSV,3,2,11,24,20,208,31,19,14,078,23,51,48,160,39,05,37,145,44*73
$GPGSV,3,3,11,20,10,187,22,29,26,291,40,31,02,326,*42
$GPRMC,030712.000,A,3402.6782,N,11829.7172,W,8.94,235.43,060516,,,A*77
$GPGGA,030713.000,3402.6750,N,11829.7205,W,1,07,1.3,93.0,M,-33.9,M,,0000*51
$GPGSA,M,3,12,02,25,06,24,19,51,,,,,,2.0,1.3,1.5*30
$GPRMC,030713.000,A,3402.6750,N,11829.7205,W,10.09,234.51,060516,,,A*45
$GPGGA,030714.000,3402.6726,N,11829.7237,W,1,07,1.3,91.7,M,-33.9,M,,0000*53
$GPGSA,M,3,12,02,25,06,24,19,51,,,,,,2.0,1.3,1.5*30
$GPRMC,030714.000,A,3402.6726,N,11829.7237,W,10.83,234.56,060516,,,A*47
$GPGGA,030715.000,3402.6704,N,11829.7269,W,1,07,1.3,91.3,M,-33.9,M,,0000*5D
$GPGSA,M,3,12,02,25,06,24,19,51,,,,,,2.0,1.3,1.5*30
$GPRMC,030715.000,A,3402.6704,N,11829.7269,W,11.23,235.26,060516,,,A*40
$GPGGA,030716.000,3402.6683,N,11829.7303,W,1,07,1.3,91.4,M,-33.9,M,,0000*5A
$GPGSA,M,3,12,02,25,06,24,19,51,,,,,,2.0,1.3,1.5*30
$GPRMC,030716.000,A,3402.6683,N,11829.7303,W,10.96,236.40,060516,,,A*4C
$GPGGA,030717.000,3402.6668,N,11829.7331,W,1,07,1.3,91.7,M,-33.9,M,,0000*5C
$GPGSA,M,3,12,02,25,06,24,19,51,,,,,,2.0,1.3,1.5*30
$GPGSV,3,1,11,12,89,357,44,02,67,034,39,25,49,316,33,06,21,045,30*7F
$GPGSV,3,2,11,24,20,208,36,19,14,078,26,51,48,160,40,05,37,145,44*7F
$GPGSV,3,3,11,20,10,187,27,29,26,291,39,31,02,326,*49
$GPRMC,030717.000,A,3402.6668,N,11829.7331,W,10.38,237.39,060516,,,A*42
$GPGGA,030718.000,3402.6655,N,11829.7358,W,1,07,1.3,92.1,M,-33.9,M,,0000*57
$GPGSA,M,3,12,02,25,06,24,19,51,,,,,,2.0,1.3,1.5*30
$GPRMC,030718.000,A,3402.6655,N,11829.7358,W,9.63,238.81,060516,,,A*76
$GPGGA,030719.000,3402.6646,N,11829.7372,W,1,07,1.3,92.3,M,-33.9,M,,0000*5E
$GPGSA,M,3,12,02,25,06,24,19,51,,,,,,2.0,1.3,1.5*30
$GPRMC,030719.000,A,3402.6646,N,11829.7372,W,7.03,238.57,060516,,,A*7E
$GPGGA,030720.000,3402.6637,N,11829.7378,W,2,06,1.4,92.3,M,-33.9,M,,0000*5D
$GPGSA,M,3,12,02,25,06,24,51,,,,,,,2.2,1.4,1.7*3F
$GPRMC,030720.000,A,3402.6637,N,11829.7378,W,5.39,232.94,060516,,,D*73
$GPGGA,030721.000,3402.6627,N,11829.7377,W,2,06,1.4,92.2,M,-33.9,M,,0000*53
$GPGSA,M,3,12,02,25,06,24,51,,,,,,,2.2,1.4,1.7*3F
$GPRMC,030721.000,A,3402.6627,N,11829.7377,W,4.85,218.77,060516,,,D*7F
$GPGGA,030722.000,3402.6607,N,11829.7363,W,2,06,1.4,92.5,M,-33.9,M,,0000*50
$GPGSA,M,3,12,02,25,06,24,51,,,,,,,2.2,1.4,1.7*3F
$GPGSV,3,1,11,12,89,357,44,02,67,034,37,25,49,316,43,06,21,045,32*74
$GPGSV,3,2,11,24,20,208,36,51,48,160,43,05,37,145,45,19,14,078,25*7E
$GPGSV,3,3,11,20,10,187,33,29,26,291,35,31,02,326,*40
$GPRMC,030722.000,A,3402.6607,N,11829.7363,W,5.73,199.40,060516,,,D*7D
$GPGGA,030723.000,3402.6586,N,11829.7349,W,2,06,1.4,92.8,M,-33.9,M,3.0,0000*73
$GPGSA,M,3,12,02,25,06,24,51,,,,,,,2.2,1.4,1.7*3F
$GPRMC,030723.000,A,3402.6586,N,11829.7349,W,6.88,177.89,060516,,,D*7C
$GPGGA,030724.000,3402.6567,N,11829.7341,W,2,06,1.4,92.9,M,-33.9,M,4.0,0000*75
$GPGSA,M,3,12,02,25,06,24,51,,,,,,,2.2,1.4,1.7*3F
$GPRMC,030724.000,A,3402.6567,N,11829.7341,W,7.34,164.98,060516,,,D*78
$GPGGA,030725.000,3402.6551,N,11829.7328,W,2,06,1.4,93.4,M,-33.9,M,5.0,0000*73
$GPGSA,M,3,12,02,25,06,24,51,,,,,,,2.2,1.4,1.7*3F
$GPRMC,030725.000,A,3402.6551,N,11829.7328,W,7.13,155.03,060516,,,D*76
$GPGGA,030726.000,3402.6534,N,11829.7309,W,2,06,1.4,93.5,M,-33.9,M,6.0,0000*72
$GPGSA,M,3,12,02,25,06,24,51,,,,,,,2.2,1.4,1.7*3F
$GPRMC,030726.000,A,3402.6534,N,11829.7309,W,7.87,148.97,060516,,,D*79
$GPGGA,030727.000,3402.6514,N,11829.7283,W,2,05,1.8,93.3,M,-33.9,M,7.0,0000*7A
$GPGSA,M,3,12,02,25,06,24,,,,,,,,2.5,1.8,1.8*3F
$GPGSV,3,1,11,12,89,357,44,02,67,034,38,25,49,316,36,06,21,045,37*7C
$GPGSV,3,2,11,24,20,208,42,05,37,145,43,19,14,078,26,20,10,187,24*7B
$GPGSV,3,3,11,29,26,291,34,51,48,160,36,31,02,326,*46
$GPRMC,030727.000,A,3402.6514,N,11829.7283,W,8.92,144.45,060516,,,D*71
$GPGGA,030728.000,3402.6489,N,11829.7256,W,2,06,1.4,93.6,M,-33.9,M,8.0,0000*7D
$GPGSA,M,3,12,02,25,06,24,51,,,,,,,2.2,1.4,1.7*3F
$GPRMC,030728.000,A,3402.6489,N,11829.7256,W,10.12,142.09,060516,,,D*4C
$GPGGA,030729.000,3402.6461,N,11829.7220,W,2,06,1.4,94.1,M,-33.9,M,9.0,0000*7A
$GPGSA,M,3,12,02,25,06,24,51,,,,,,,2.2,1.4,1.7*3F
$GPRMC,030729.000,A,3402.6461,N,11829.7220,W,12.16,137.09,060516,,,D*4E
$GPGGA,030730.000,3402.6431,N,11829.7178,W,2,06,1.4,93.7,M,-33.9,M,10.0,0000*40
$GPGSA,M,3,12,02,25,06,24,51,,,,,,,2.2,1.4,1.7*3F
$GPRMC,030730.000,A,3402.6431,N,11829.7178,W,13.57,136.31,060516,,,D*43
$GPGGA,030731.000,3402.6403,N,11829.7144,W,2,06,1.4,94.1,M,-33.9,M,11.0,0000*4F
$GPGSA,M,3,12,02,25,06,24,51,,,,,,,2.2,1.4,1.7*3F
$GPRMC,030731.000,A,3402.6403,N,11829.7144,W,13.41,135.91,060516,,,D*42
$GPGGA,030732.000,3402.6374,N,11829.7106,W,2,06,1.4,94.4,M,-33.9,M,12.0,0000*4B
$GPGSA,M,3,12,02,25,06,24,51,,,,,,,2.2,1.4,1.7*3F
$GPGSV,3,1,11,12,89,357,44,02,67,034,34,25,49,316,41,06,21,045,37*70
$GPGSV,3,2,11,24,20,208,35,51,48,160,40,05,37,145,44,19,14,078,27*7D
$GPGSV,3,3,11,20,10,187,24,29,26,291,30,31,02,326,*43
$GPRMC,030732.000,A,3402.6374,N,11829.7106,W,12.78,135.60,060516,,,D*45
$GPGGA,030733.000,3402.6346,N,11829.7071,W,2,06,1.4,94.9,M,-33.9,M,13.0,0000*46
$GPGSA,M,3,12,02,25,06,24,51,,,,,,,2.2,1.4,1.7*3F
$GPRMC,030733.000,A,3402.6346,N,11829.7071,W,13.34,135.85,060516,,,D*46
$GPGGA,030734.000,3402.6318,N,11829.7037,W,2,06,1.4,95.0,M,-33.9,M,14.0,0000*47
$GPGSA,M,3,12,02,25,06,24,51,,,,,,,2.2,1.4,1.7*3F
$GPRMC,030734.000,A,3402.6318,N,11829.7037,W,13.99,134.74,060516,,,D*40
$GPGGA,030735.000,3402.6291,N,11829.7002,W,2,06,1.4,95.2,M,-33.9,M,15.0,0000*43
$GPGSA,M,3,12,02,25,06,24,51,,,,,,,2.2,1.4,1.7*3F
$GPRMC,030735.000,A,3402.6291,N,11829.7002,W,13.97,134.48,060516,,,D*46
$GPGGA,030736.000,3402.6263,N,11829.6968,W,2,06,1.4,95.5,M,-33.9,M,16.0,0000*4D
$GPGSA,M,3,12,02,25,06,24,51,,,,,,,2.2,1.4,1.7*3F
$GPRMC,030736.000,A,3402.6263,N,11829.6968,W,14.19,134.81,060516,,,D*48
$GPGGA,030737.000,3402.6235,N,11829.6933,W,2,06,1.4,95.6,M,-33.9,M,17.0,0000*43
$GPGSA,M,3,12,02,25,06,24,51,,,,,,,2.2,1.4,1.7*3F
$GPGSV,3,1,11,12,89,357,44,02,67,034,31,25,49,316,40,06,21,045,36*75
$GPGSV,3,2,11,24,20,208,37,51,48,160,35,05,37,145,44,19,14,078,27*7D
$GPGSV,3,3,11,20,10,187,25,29,26,291,32,31,02,326,*40
$GPRMC,030737.000,A,3402.6235,N,11829.6933,W,13.71,136.86,060516,,,D*48
$GPGGA,030738.000,3402.6209,N,11829.6901,W,2,06,1.4,95.9,M,-33.9,M,18.0,0000*42
$GPGSA,M,3,12,02,25,06,24,51,,,,,,,2.2,1.4,1.7*3F
$GPRMC,030738.000,A,3402.6209,N,11829.6901,W,13.04,134.72,060516,,,D*42
$GPGGA,030739.000,3402.6186,N,11829.6866,W,1,07,1.3,95.4,M,-33.9,M,,0000*58
$GPGSA,M,3,12,02,25,06,24,19,51,,,,,,2.0,1.3,1.5*30
$GPRMC,030739.000,A,3402.6186,N,11829.6866,W,12.97,130.89,060516,,,A*49
$GPGGA,030740.000,3402.6162,N,11829.6830,W,1,07,1.3,95.3,M,-33.9,M,,0000*58
$GPGSA,M,3,12,02,25,06,24,19,51,,,,,,2.0,1.3,1.5*30
$GPRMC,030740.000,A,3402.6162,N,11829.6830,W,13.29,130.07,060516,,,A*4C
$GPGGA,030741.000,3402.6136,N,11829.6796,W,1,07,1.3,95.4,M,-33.9,M,,0000*5C
$GPGSA,M,3,12,02,25,06,24,19,51,,,,,,2.0,1.3,1.5*30
$GPRMC,030741.000,A,3402.6136,N,11829.6796,W,13.62,132.23,060516,,,A*44
$GPGGA,030742.000,3402.6105,N,11829.6763,W,1,07,1.3,94.9,M,-33.9,M,,0000*59
$GPGSA,M,3,12,02,25,06,24,19,51,,,,,,2.0,1.3,1.5*30
$GPGSV,3,1,11,12,89,036,42,02,66,034,31,25,50,316,40,06,20,045,27*7F
$GPGSV,3,2,11,24,20,207,41,19,13,078,26,51,48,160,38,05,38,145,43*70
$GPGSV,3,3,11,20,10,187,35,29,26,292,32,31,02,326,*42
$GPRMC,030742.000,A,3402.6105,N,11829.6763,W,14.20,135.46,060516,,,A*48
$GPGGA,030743.000,3402.6070,N,11829.6727,W,1,07,1.3,94.6,M,-33.9,M,,0000*54
$GPGSA,M,3,12,02,25,06,24,19,51,,,,,,2.0,1.3,1.5*30
$GPRMC,030743.000,A,3402.6070,N,11829.6727,W,15.70,137.77,060516,,,A*4E
$GPGGA,030744.000,3402.6034,N,11829.6684,W,1,07,1.3,94.7,M,-33.9,M,,0000*5A
$GPGSA,M,3,12,02,25,06,24,19,51,,,,,,2.0,1.3,1.5*30
$GPRMC,030744.000,A,3402.6034,N,11829.6684,W,17.37,137.39,060516,,,A*4A
$GPGGA,030745.000,3402.5995,N,11829.6637,W,1,07,1.3,94.4,M,-33.9,M,,0000*51
$GPGSA,M,3,12,02,25,06,24,19,51,,,,,,2.0,1.3,1.5*30
$GPRMC,030745.000,A,3402.5995,N,11829.6637,W,19.03,135.32,060516,,,A*42
$GPGGA,030746.000,3402.5957,N,11829.6591,W,1,07,1.3,94.4,M,-33.9,M,,0000*53
$GPGSA,M,3,12,02,25,06,24,19,51,,,,,,2.0,1.3,1.5*30
$GPRMC,030746.000,A,3402.5957,N,11829.6591,W,19.40,135.32,060516,,,A*47
$GPGGA,030747.000,3402.5917,N,11829.6541,W,1,07,1.3,94.0,M,-33.9,M,,0000*5F
$GPGSA,M,3,12,02,25,06,24,19,51,,,,,,2.0,1.3,1.5*30
$GPGSV,3,1,11,12,89,036,43,02,66,034,32,25,50,316,40,06,20,045,36*7D
$GPGSV,3,2,11,24,20,207,40,19,13,078,32,51,48,160,36,05,38,145,43*7A
$GPGSV,3,3,11,20,10,187,31,29,26,292,32,31,02,326,*46
$GPRMC,030747.000,A,3402.5917,N,11829.6541,W,19.76,135.73,060516,,,A*4F
$GPGGA,030748.000,3402.5876,N,11829.6493,W,1,07,1.3,93.6,M,-33.9,M,,0000*59
$GPGSA,M,3,12,02,25,06,24,19,51,,,,,,2.0,1.3,1.5*30
$GPRMC,030748.000,A,3402.5876,N,11829.6493,W,19.82,136.41,060516,,,A*41
$GPGGA,030749.000,3402.5835,N,11829.6445,W,1,07,1.3,93.3,M,-33.9,M,,0000*51
$GPGSA,M,3,12,02,25,06,24,19,51,,,,,,2.0,1.3,1.5*30
$GPRMC,030749.000,A,3402.5835,N,11829.6445,W,19.99,136.76,060516,,,A*42
$GPGGA,030750.000,3402.5794,N,11829.6398,W,1,07,1.3,93.1,M,-33.9,M,,0000*58
$GPGSA,M,3,12,02,25,06,24,19,51,,,,,,2.0,1.3,1.5*30
$GPRMC,030750.000,A,3402.5794,N,11829.6398,W,19.88,135.90,060516,,,A*42
$GPGGA,030751.000,3402.5753,N,11829.6351,W,1,07,1.3,92.8,M,-33.9,M,,0000*5F
$GPGSA,M,3,12,02,25,06,24,19,51,,,,,,2.0,1.3,1.5*30
$GPRMC,030751.000,A,3402.5753,N,11829.6351,W,19.99,135.81,060516,,,A*4D
$GPGGA,030752.000,3402.5713,N,11829.6302,W,1,07,1.3,92.4,M,-33.9,M,,0000*52
$GPGSA,M,3,12,02,25,06,24,19,51,,,,,,2.0,1.3,1.5*30
$GPGSV,3,1,11,12,89,036,43,02,66,034,33,25,50,316,40,06,20,045,36*7C
$GPGSV,3,2,11,24,20,207,41,19,13,078,32,51,48,160,36,05,38,145,42*7A
$GPGSV,3,3,11,20,10,187,29,29,26,292,28,31,02,326,*44
$GPRMC,030752.000,A,3402.5713,N,11829.6302,W,20.16,135.85,060516,,,A*45
$GPGGA,030753.000,3402.5672,N,11829.6253,W,1,07,1.3,92.2,M,-33.9,M,,0000*56
$GPGSA,M,3,12,02,25,06,24,19,51,,,,,,2.0,1.3,1.5*30
$GPRMC,030753.000,A,3402.5672,N,11829.6253,W,20.01,135.56,060516,,,A*4F
$GPGGA,030754.000,3402.5632,N,11829.6206,W,1,07,1.3,92.0,M,-33.9,M,,0000*57
$GPGSA,M,3,12,02,25,06,24,19,51,,,,,,2.0,1.3,1.5*30
$GPRMC,030754.000,A,3402.5632,N,11829.6206,W,19.70,135.35,060516,,,A*45
$GPGGA,030755.000,3402.5593,N,11829.6161,W,1,07,1.3,91.7,M,-33.9,M,,0000*58
$GPGSA,M,3,12,02,25,06,24,19,51,,,,,,2.0,1.3,1.5*30
$GPRMC,030755.000,A,3402.5593,N,11829.6161,W,18.92,136.01,060516,,,A*47
$GPGGA,030756.000,3402.5556,N,11829.6119,W,1,07,1.3,91.5,M,-33.9,M,,0000*5F
$GPGSA,M,3,12,02,25,06,24,19,51,,,,,,2.0,1.3,1.5*30
$GPRMC,030756.000,A,3402.5556,N,11829.6119,W,17.09,137.02,060516,,,A*4D
$GPGGA,030757.000,3402.5523,N,11829.6081,W,1,07,1.3,91.1,M,-33.9,M,,0000*58
$GPGSA,M,3,12,02,25,06,24,19,51,,,,,,2.0,1.3,1.5*30
$GPGSV,3,1,11,12,89,036,43,02,66,034,32,25,50,316,39,06,20,045,36*73
$GPGSV,3,2,11,24,20,207,41,19,13,078,32,51,48,160,40,05,38,145,42*7B
$GPGSV,3,3,11,20,10,187,23,29,26,292,29,31,02,326,*4F
$GPRMC,030757.000,A,3402.5523,N,11829.6081,W,15.39,138.00,060516,,,A*42
$GPGGA,030758.000,3402.5491,N,11829.6045,W,1,08,1.1,91.1,M,-33.9,M,,0000*5A
$GPGSA,M,3,12,02,25,06,24,19,05,51,,,,,1.9,1.1,1.5*3D
$GPRMC,030758.000,A,3402.5491,N,11829.6045,W,13.49,136.22,060516,,,A*42
$GPGGA,030759.000,3402.5465,N,11829.6016,W,1,08,1.1,91.1,M,-33.9,M,,0000*56
$GPGSA,M,3,12,02,25,05,06,24,19,51,,,,,1.9,1.1,1.5*3D
$GPRMC,030759.000,A,3402.5465,N,11829.6016,W,10.60,137.03,060516,,,A*44
$GPGGA,030800.000,3402.5447,N,11829.5995,W,1,08,1.1,91.1,M,-33.9,M,,0000*54
$GPGSA,M,3,12,02,25,05,06,24,19,51,,,,,1.9,1.1,1.5*3D
$GPRMC,030800.000,A,3402.5447,N,11829.5995,W,6.75,136.13,060516,,,A*75
$GPGGA,030801.000,3402.5436,N,11829.5982,W,1,08,1.1,91.1,M,-33.9,M,,0000*55
$GPGSA,M,3,12,02,25,05,06,24,19,51,,,,,1.9,1.1,1.5*3D
$GPRMC,030801.000,A,3402.5436,N,11829.5982,W,4.21,137.12,060516,,,A*77
$GPGGA,030802.000,3402.5426,N,11829.5972,W,1,08,1.1,91.3,M,-33.9,M,,0000*5A
$GPGSA,M,3,12,02,25,05,06,24,19,51,,,,,1.9,1.1,1.5*3D
$GPGSV,3,1,11,12,89,066,43,02,66,034,34,25,50,316,39,05,38,145,43*79
$GPGSV,3,2,11,06,20,045,33,24,19,207,25,19,13,079,32,51,48,160,40*7F
$GPGSV,3,3,11,20,11,187,32,29,26,292,30,31,02,326,*46
$GPRMC,030802.000,A,3402.5426,N,11829.5972,W,5.25,137.14,060516,,,A*79
$GPGGA,030803.000,3402.5412,N,11829.5957,W,1,08,1.1,91.3,M,-33.9,M,,0000*5B
$GPGSA,M,3,12,02,25,05,06,24,19,51,,,,,1.9,1.1,1.5*3D
$GPRMC,030803.000,A,3402.5412,N,11829.5957,W,7.65,137.02,060516,,,A*79
$GPGGA,030804.000,3402.5394,N,11829.5935,W,1,08,1.1,91.3,M,-33.9,M,,0000*51
$GPGSA,M,3,12,02,25,05,06,24,19,51,,,,,1.9,1.1,1.5*3D
$GPRMC,030804.000,A,3402.5394,N,11829.5935,W,10.23,134.73,060516,,,A*42
$GPGGA,030805.000,3402.5371,N,11829.5906,W,1,08,1.1,91.2,M,-33.9,M,,0000*5A
$GPGSA,M,3,12,02,25,05,06,24,19,51,,,,,1.9,1.1,1.5*3D
$GPRMC,030805.000,A,3402.5371,N,11829.5906,W,12.72,132.39,060516,,,A*46
$GPGGA,030806.000,3402.5345,N,11829.5871,W,2,07,1.2,91.2,M,-33.9,M,,0000*50
$GPGSA,M,3,12,02,25,05,06,24,51,,,,,,2.1,1.2,1.6*3E
$GPRMC,030806.000,A,3402.5345,N,11829.5871,W,14.78,132.46,060516,,,D*42
$GPGGA,030807.000,3402.5314,N,11829.5831,W,2,07,1.2,91.3,M,-33.9,M,,0000*50
$GPGSA,M,3,12,02,25,05,06,24,51,,,,,,2.1,1.2,1.6*3E
$GPGSV,3,1,11,12,89,066,44,02,66,034,28,25,50,316,40,05,38,145,43*7D
$GPGSV,3,2,11,06,20,045,36,24,19,207,37,51,48,160,38,19,13,079,39*7D
$GPGSV,3,3,11,20,11,187,24,29,26,292,39,31,02,326,*48
$GPRMC,030807.000,A,3402.5314,N,11829.5831,W,16.69,133.44,060516,,,D*42
$GPGGA,030808.000,3402.5280,N,11829.5788,W,2,07,1.2,91.2,M,-33.9,M,3.0,0000*72
$GPGSA,M,3,12,02,25,05,06,24,51,,,,,,2.1,1.2,1.6*3E
$GPRMC,030808.000,A,3402.5280,N,11829.5788,W,18.18,135.29,060516,,,D*49
$GPGGA,030809.000,3402.5242,N,11829.5743,W,2,07,1.2,91.0,M,-33.9,M,4.0,0000*7F
$GPGSA,M,3,12,02,25,05,06,24,51,,,,,,2.1,1.2,1.6*3E
$GPRMC,030809.000,A,3402.5242,N,11829.5743,W,19.49,136.03,060516,,,D*4F
$GPGGA,030810.000,3402.5201,N,11829.5696,W,2,07,1.2,91.0,M,-33.9,M,5.0,0000*78
$GPGSA,M,3,12,02,25,05,06,24,51,,,,,,2.1,1.2,1.6*3E
$GPRMC,030810.000,A,3402.5201,N,11829.5696,W,20.39,135.89,060516,,,D*45
$GPGGA,030811.000,3402.5159,N,11829.5648,W,2,06,1.3,90.9,M,-33.9,M,6.0,0000*7F
$GPGSA,M,3,12,02,25,05,06,24,,,,,,,2.2,1.3,1.7*39
$GPRMC,030811.000,A,3402.5159,N,11829.5648,W,20.67,136.13,060516,,,D*42
$GPGGA,030812.000,3402.5116,N,11829.5597,W,2,06,1.3,90.6,M,-33.9,M,7.0,0000*78
$GPGSA,M,3,12,02,25,05,06,24,,,,,,,2.2,1.3,1.7*39
$GPGSV,3,1,11,12,89,066,43,02,66,034,33,25,50,316,40,05,38,145,41*72
$GPGSV,3,2,11,06,20,045,36,24,19,207,38,19,13,079,31,20,11,187,25*75
$GPGSV,3,3,11,29,26,292,30,51,48,160,38,31,02,326,*4F
$GPRMC,030812.000,A,3402.5116,N,11829.5597,W,21.27,134.88,060516,,,D*4E
$GPGGA,030813.000,3402.5074,N,11829.5546,W,2,06,1.3,90.5,M,-33.9,M,8.0,0000*7C
$GPGSA,M,3,12,02,25,05,06,24,,,,,,,2.2,1.3,1.7*39
$GPRMC,030813.000,A,3402.5074,N,11829.5546,W,21.65,134.65,060516,,,D*43
$GPGGA,030814.000,3402.5031,N,11829.5494,W,2,06,1.3,90.3,M,-33.9,M,9.0,0000*73
$GPGSA,M,3,12,02,25,05,06,24,,,,,,,2.2,1.3,1.7*39
$GPRMC,030814.000,A,3402.5031,N,11829.5494,W,21.93,135.66,060516,,,D*40
$GPGGA,030815.000,3402.4986,N,11829.5441,W,2,06,1.3,90.0,M,-33.9,M,10.0,0000*45
$GPGSA,M,3,12,02,25,05,06,24,,,,,,,2.2,1.3,1.7*39
$GPRMC,030815.000,A,3402.4986,N,11829.5441,W,22.36,135.63,060516,,,D*44
$GPGGA,030816.000,3402.4940,N,11829.5389,W,2,06,1.3,90.0,M,-33.9,M,11.0,0000*4E
$GPGSA,M,3,12,02,25,05,06,24,,,,,,,2.2,1.3,1.7*39
$GPRMC,030816.000,A,3402.4940,N,11829.5389,W,22.51,135.99,060516,,,D*4A
$GPGGA,030817.000,3402.4894,N,11829.5336,W,2,06,1.3,89.8,M,-33.9,M,12.0,0000*40
$GPGSA,M,3,12,02,25,05,06,24,,,,,,,2.2,1.3,1.7*39
$GPGSV,3,1,11,12,89,066,43,02,66,034,33,25,50,316,40,05,38,145,42*71
$GPGSV,3,2,11,06,20,045,37,24,19,207,39,19,13,079,29,20,11,187,31*79
$GPGSV,3,3,11,29,26,292,29,51,48,160,40,31,02,326,*48
$GPRMC,030817.000,A,3402.4894,N,11829.5336,W,22.58,136.26,060516,,,D*49
$GPGGA,030818.000,3402.4849,N,11829.5282,W,2,06,1.3,89.6,M,-33.9,M,,0000*52
$GPGSA,M,3,12,02,25,05,06,24,,,,,,,2.2,1.3,1.7*39
$GPRMC,030818.000,A,3402.4849,N,11829.5282,W,22.94,135.44,060516,,,D*4F
$GPGGA,030819.000,3402.4803,N,11829.5228,W,2,06,1.3,89.3,M,-33.9,M,3.0,0000*75
$GPGSA,M,3,12,02,25,05,06,24,,,,,,,2.2,1.3,1.7*39
$GPRMC,030819.000,A,3402.4803,N,11829.5228,W,22.61,136.23,060516,,,D*48
$GPGGA,030820.000,3402.4757,N,11829.5176,W,2,06,1.3,89.2,M,-33.9,M,4.0,0000*7F
$GPGSA,M,3,12,02,25,05,06,24,,,,,,,2.1,1.3,1.7*3A
$GPRMC,030820.000,A,3402.4757,N,11829.5176,W,22.46,136.32,060516,,,D*41
$GPGGA,030821.000,3402.4712,N,11829.5124,W,2,06,1.3,89.0,M,-33.9,M,5.0,0000*7B
$GPGSA,M,3,12,02,25,05,06,24,,,,,,,2.1,1.3,1.7*3A
$GPRMC,030821.000,A,3402.4712,N,11829.5124,W,22.19,136.09,060516,,,D*44
$GPGGA,030822.000,3402.4667,N,11829.5072,W,2,06,1.3,88.9,M,-33.9,M,6.0,0000*72
$GPGSA,M,3,12,02,25,05,06,24,,,,,,,2.1,1.3,1.7*3A
$GPGSV,3,1,11,12,89,066,43,02,66,034,34,25,50,316,40,05,38,145,42*76
$GPGSV,3,2,11,06,20,045,39,24,19,207,40,19,13,079,30,20,11,187,30*70
$GPGSV,3,3,11,29,26,292,30,31,02,326,18,51,48,160,37*49
$GPRMC,030822.000,A,3402.4667,N,11829.5072,W,22.01,135.62,060516,,,D*41
$GPGGA,030823.000,3402.4624,N,11829.5019,W,2,06,1.3,88.7,M,-33.9,M,7.0,0000*76
$GPGSA,M,3,12,02,25,05,06,24,,,,,,,2.1,1.3,1.7*3A
$GPRMC,030823.000,A,3402.4624,N,11829.5019,W,22.09,135.19,060516,,,D*4E
$GPGGA,030824.000,3402.4581,N,11829.4967,W,2,06,1.3,88.4,M,-33.9,M,8.0,0000*70
$GPGSA,M,3,12,02,25,05,06,24,,,,,,,2.1,1.3,1.7*3A
$GPRMC,030824.000,A,3402.4581,N,11829.4967,W,21.28,135.20,060516,,,D*4E
$GPGGA,030825.000,3402.4541,N,11829.4920,W,2,06,1.3,88.4,M,-33.9,M,9.0,0000*7F
$GPGSA,M,3,12,02,25,05,06,24,,,,,,,2.1,1.3,1.7*3A
$GPRMC,030825.000,A,3402.4541,N,11829.4920,W,18.93,135.06,060516,,,D*4E
$GPGGA,030826.000,3402.4506,N,11829.4878,W,2,06,1.3,88.3,M,-33.9,M,10.0,0000*4C
$GPGSA,M,3,12,02,25,05,06,24,,,,,,,2.1,1.3,1.7*3A
$GPRMC,030826.000,A,3402.4506,N,11829.4878,W,16.16,135.40,060516,,,D*43
$GPGGA,030827.000,3402.4477,N,11829.4846,W,2,06,1.3,88.3,M,-33.9,M,11.0,0000*46
$GPGSA,M,3,12,02,25,05,06,24,,,,,,,2.1,1.3,1.7*3A
$GPGSV,3,1,11,12,89,066,43,02,66,034,34,25,50,316,40,05,38,145,42*76
$GPGSV,3,2,11,06,20,045,38,24,19,207,40,19,13,079,36,20,11,187,38*7F
$GPGSV,3,3,11,29,26,292,30,51,48,160,39,31,02,326,*4E
$GPRMC,030827.000,A,3402.4477,N,11829.4846,W,12.79,138.48,060516,,,D*40
$GPGGA,030828.000,3402.4454,N,11829.4823,W,2,06,1.3,88.3,M,-33.9,M,12.0,0000*48
$GPGSA,M,3,12,02,25,05,06,24,,,,,,,2.1,1.3,1.7*3A
$GPRMC,030828.000,A,3402.4454,N,11829.4823,W,9.41,140.95,060516,,,D*73
$GPGGA,030829.000,3402.4438,N,11829.4808,W,2,06,1.3,88.2,M,-33.9,M,13.0,0000*4A
$GPGSA,M,3,12,02,25,05,06,24,,,,,,,2.1,1.3,1.7*3A
$GPRMC,030829.000,A,3402.4438,N,11829.4808,W,6.04,141.48,060516,,,D*7E
$GPGGA,030830.000,3402.4429,N,11829.4800,W,2,06,1.3,88.3,M,-33.9,M,14.0,0000*4C
$GPGSA,M,3,12,02,25,05,06,24,,,,,,,2.1,1.3,1.7*3A
$GPRMC,030830.000,A,3402.4429,N,11829.4800,W,3.02,139.41,060516,,,D*7B
$GPGGA,030831.000,3402.4423,N,11829.4793,W,2,05,2.5,88.3,M,-33.9,M,15.0,0000*45
$GPGSA,M,3,12,02,25,05,24,,,,,,,,5.0,2.5,4.3*3E
$GPRMC,030831.000,A,3402.4423,N,11829.4793,W,3.48,137.94,060516,,,D*7D
$GPGGA,030832.000,3402.4414,N,11829.4784,W,2,05,1.3,88.2,M,-33.9,M,,0000*5A
$GPGSA,M,3,02,25,05,06,24,,,,,,,,2.5,1.3,2.1*38
$GPGSV,3,1,11,02,66,034,35,25,50,316,39,05,38,145,42,06,20,045,37*7D
$GPGSV,3,2,11,24,19,207,40,12,89,066,44,19,13,079,30,20,11,187,39*74
$GPGSV,3,3,11,29,26,292,30,51,48,160,38,31,02,326,*4F
$GPRMC,030832.000,A,3402.4414,N,11829.4784,W,5.79,137.42,060516,,,D*73
$GPGGA,030833.000,3402.4399,N,11829.4768,W,2,05,1.3,88.2,M,-33.9,M,3.0,0000*76
$GPGSA,M,3,02,25,05,06,24,,,,,,,,2.5,1.3,2.1*38
$GPRMC,030833.000,A,3402.4399,N,11829.4768,W,8.73,136.46,060516,,,D*70
$GPGGA,030834.000,3402.4379,N,11829.4745,W,2,05,1.3,88.2,M,-33.9,M,4.0,0000*77
$GPGSA,M,3,02,25,05,06,24,,,,,,,,2.5,1.3,2.1*38
$GPRMC,030834.000,A,3402.4379,N,11829.4745,W,11.34,135.21,060516,,,D*4F
$GPGGA,030835.000,3402.4355,N,11829.4716,W,2,05,1.3,88.1,M,-33.9,M,5.0,0000*7C
$GPGSA,M,3,02,25,05,06,24,,,,,,,,2.5,1.3,2.1*38
$GPRMC,030835.000,A,3402.4355,N,11829.4716,W,13.76,133.61,060516,,,D*40
$GPGGA,030836.000,3402.4327,N,11829.4682,W,2,05,1.3,88.1,M,-33.9,M,6.0,0000*75
$GPGSA,M,3,02,25,05,06,24,,,,,,,,2.5,1.3,2.1*38
$GPRMC,030836.000,A,3402.4327,N,11829.4682,W,14.71,135.66,060516,,,D*4B
$GPGGA,030837.000,3402.4295,N,11829.4644,W,2,05,1.3,88.0,M,-33.9,M,7.0,0000*76
$GPGSA,M,3,02,25,05,06,24,,,,,,,,2.5,1.3,2.1*38
$GPGSV,3,1,11,02,66,034,35,25,50,316,39,05,38,145,39,06,20,045,30*76
$GPGSV,3,2,11,24,19,207,39,12,89,066,42,19,13,079,29,20,11,187,39*74
$GPGSV,3,3,11,29,26,292,34,51,48,160,37,31,02,326,*44
$GPRMC,030837.000,A,3402.4295,N,11829.4644,W,17.27,134.71,060516,,,D*4F
$GPGGA,030838.000,3402.4258,N,11829.4598,W,2,05,1.3,88.0,M,-33.9,M,8.0,0000*75
$GPGSA,M,3,02,25,05,06,24,,,,,,,,2.5,1.3,2.1*38
$GPRMC,030838.000,A,3402.4258,N,11829.4598,W,19.46,134.41,060516,,,D*49
$GPGGA,030839.000,3402.4218,N,11829.4549,W,2,05,1.3,87.9,M,-33.9,M,9.0,0000*7B
$GPGSA,M,3,02,25,05,06,24,,,,,,,,2.5,1.3,2.1*38
$GPRMC,030839.000,A,3402.4218,N,11829.4549,W,21.20,134.65,060516,,,D*4D
$GPGGA,030840.000,3402.4172,N,11829.4498,W,2,05,1.3,88.2,M,-33.9,M,10.0,0000*4B
$GPGSA,M,3,02,25,05,06,24,,,,,,,,2.5,1.3,2.1*38
$GPRMC,030840.000,A,3402.4172,N,11829.4498,W,22.30,136.19,060516,,,D*4A
$GPGGA,030841.000,3402.4125,N,11829.4445,W,2,05,1.3,88.2,M,-33.9,M,11.0,0000*49
$GPGSA,M,3,02,25,05,06,24,,,,,,,,2.5,1.3,2.1*38
$GPRMC,030841.000,A,3402.4125,N,11829.4445,W,23.03,136.97,060516,,,D*4E
$GPGGA,030842.000,3402.4077,N,11829.4390,W,2,05,1.3,88.2,M,-33.9,M,12.0,0000*40
$GPGSA,M,3,02,25,05,06,24,,,,,,,,2.5,1.3,2.1*38
$GPGSV,3,1,11,02,66,034,35,25,50,316,39,05,38,145,42,06,20,045,33*79
$GPGSV,3,2,11,24,19,207,39,12,89,066,43,19,13,079,25,20,11,187,35*75
$GPGSV,3,3,11,29,26,292,30,51,48,160,39,31,02,326,*4E
$GPRMC,030842.000,A,3402.4077,N,11829.4390,W,23.49,136.68,060516,,,D*4A
$GPGGA,030843.000,3402.4029,N,11829.4334,W,2,05,1.3,88.2,M,-33.9,M,13.0,0000*45
$GPGSA,M,3,02,25,05,06,24,,,,,,,,2.5,1.3,2.1*38
$GPRMC,030843.000,A,3402.4029,N,11829.4334,W,23.77,136.22,060516,,,D*4D
$GPGGA,030844.000,3402.3981,N,11829.4278,W,2,05,1.3,88.2,M,-33.9,M,14.0,0000*40
$GPGSA,M,3,02,25,05,06,24,,,,,,,,2.5,1.3,2.1*38
$GPRMC,030844.000,A,3402.3981,N,11829.4278,W,24.05,136.54,060516,,,D*4C
$GPGGA,030845.000,3402.3931,N,11829.4221,W,2,05,1.3,87.9,M,-33.9,M,15.0,0000*43
$GPGSA,M,3,02,25,05,06,24,,,,,,,,2.5,1.3,2.1*38
$GPRMC,030845.000,A,3402.3931,N,11829.4221,W,24.12,136.90,060516,,,D*44
$GPGGA,030846.000,3402.3882,N,11829.4164,W,2,05,1.3,88.0,M,-33.9,M,16.0,0000*4E
$GPGSA,M,3,02,25,05,06,24,,,,,,,,2.5,1.3,2.1*38
$GPRMC,030846.000,A,3402.3882,N,11829.4164,W,24.17,135.87,060516,,,D*4C
$GPGGA,030847.000,3402.3833,N,11829.4107,W,2,05,1.3,88.0,M,-33.9,M,17.0,0000*41
$GPGSA,M,3,02,25,05,06,24,,,,,,,,2.5,1.3,2.1*38
$GPGSV,3,1,11,02,66,034,33,25,50,316,40,05,38,145,38,06,20,045,34*7B
$GPGSV,3,2,11,24,19,207,39,12,89,066,43,19,13,079,26,20,11,187,32*71
$GPGSV,3,3,11,29,26,292,31,51,48,160,37,31,02,326,*41
$GPRMC,030847.000,A,3402.3833,N,11829.4107,W,24.10,135.21,060516,,,D*49
$GPGGA,030848.000,3402.3785,N,11829.4051,W,2,05,1.3,88.1,M,-33.9,M,18.0,0000*40
$GPGSA,M,3,02,25,05,06,24,,,,,,,,2.5,1.3,2.1*38
$GPRMC,030848.000,A,3402.3785,N,11829.4051,W,23.85,134.79,060516,,,D*41
$GPGGA,030849.000,3402.3740,N,11829.3994,W,1,07,1.2,86.9,M,-33.9,M,,0000*5E
$GPGSA,M,3,12,02,25,05,06,24,19,,,,,,2.0,1.2,1.6*33
$GPRMC,030849.000,A,3402.3740,N,11829.3994,W,23.67,135.63,060516,,,A*4D
$GPGGA,030850.000,3402.3693,N,11829.3938,W,1,07,1.2,85.7,M,-33.9,M,,0000*52
$GPGSA,M,3,12,02,25,05,06,24,19,,,,,,2.0,1.2,1.6*33
$GPRMC,030850.000,A,3402.3693,N,11829.3938,W,23.54,136.37,060516,,,A*4E
$GPGGA,030851.000,3402.3646,N,11829.3883,W,1,07,1.2,85.0,M,-33.9,M,,0000*5D
$GPGSA,M,3,12,02,25,05,06,24,19,,,,,,2.0,1.2,1.6*33
$GPRMC,030851.000,A,3402.3646,N,11829.3883,W,23.40,136.17,060516,,,A*41
$GPGGA,030852.000,3402.3599,N,11829.3828,W,1,07,1.2,84.4,M,-33.9,M,,0000*5B
$GPGSA,M,3,12,02,25,05,06,24,19,,,,,,2.0,1.2,1.6*33
$GPGSV,3,1,11,12,89,066,43,02,66,034,34,25,50,316,40,05,38,145,40*74
$GPGSV,3,2,11,06,20,045,27,24,19,207,39,19,13,079,22,20,11,187,25*76
$GPGSV,3,3,11,29,26,292,30,51,48,160,37,31,02,326,*40
$GPRMC,030852.000,A,3402.3599,N,11829.3828,W,23.26,136.58,060516,,,A*49
$GPGGA,030853.000,3402.3552,N,11829.3773,W,1,07,1.2,84.0,M,-33.9,M,,0000*58
$GPGSA,M,3,12,02,25,05,06,24,19,,,,,,2.0,1.2,1.6*33
$GPRMC,030853.000,A,3402.3552,N,11829.3773,W,23.21,134.84,060516,,,A*4A
$GPGGA,030854.000,3402.3506,N,11829.3717,W,1,07,1.2,83.6,M,-33.9,M,,0000*5D
$GPGSA,M,3,12,02,25,05,06,24,19,,,,,,2.0,1.2,1.6*33
$GPRMC,030854.000,A,3402.3506,N,11829.3717,W,23.01,134.41,060516,,,A*45
$GPGGA,030855.000,3402.3460,N,11829.3663,W,1,07,1.2,83.6,M,-33.9,M,,0000*5F
$GPGSA,M,3,12,02,25,05,06,24,19,,,,,,2.0,1.2,1.6*33
$GPRMC,030855.000,A,3402.3460,N,11829.3663,W,22.86,134.12,060516,,,A*4F
$GPGGA,030856.000,3402.3416,N,11829.3606,W,1,07,1.2,83.7,M,-33.9,M,,0000*5F
$GPGSA,M,3,12,02,25,05,06,24,19,,,,,,2.0,1.2,1.6*33
$GPRMC,030856.000,A,3402.3416,N,11829.3606,W,22.89,133.14,060516,,,A*40
$GPGGA,030857.000,3402.3371,N,11829.3551,W,1,07,1.2,83.2,M,-33.9,M,,0000*5C
$GPGSA,M,3,12,02,25,05,06,24,19,,,,,,2.0,1.2,1.6*33
$GPGSV,3,1,11,12,89,066,43,02,66,034,28,25,50,316,39,05,38,145,41*76
$GPGSV,3,2,11,06,20,045,35,24,19,207,37,19,13,079,29,20,11,187,33*77
$GPGSV,3,3,11,29,26,292,30,51,48,160,37,31,02,326,*40
$GPRMC,030857.000,A,3402.3371,N,11829.3551,W,22.86,135.87,060516,,,A*45
$GPGGA,030858.000,3402.3325,N,11829.3499,W,1,07,1.2,82.9,M,-33.9,M,,0000*5D
$GPGSA,M,3,12,02,25,05,06,24,19,,,,,,2.0,1.2,1.6*33
$GPRMC,030858.000,A,3402.3325,N,11829.3499,W,22.56,136.46,060516,,,A*4D
$GPGGA,030859.000,3402.3280,N,11829.3447,W,1,07,1.2,82.3,M,-33.9,M,,0000*5B
$GPGSA,M,3,12,02,25,05,06,24,19,,,,,,2.0,1.2,1.6*33
$GPRMC,030859.000,A,3402.3280,N,11829.3447,W,22.11,136.16,060516,,,A*47
$GPGGA,030900.000,3402.3237,N,11829.3396,W,1,07,1.2,81.9,M,-33.9,M,,0000*58
$GPGSA,M,3,12,02,25,05,06,24,19,,,,,,2.0,1.2,1.6*33
$GPRMC,030900.000,A,3402.3237,N,11829.3396,W,21.24,135.37,060516,,,A*48
$GPGGA,030901.000,3402.3195,N,11829.3346,W,1,07,1.2,81.5,M,-33.9,M,,0000*53
$GPGSA,M,3,12,02,25,05,06,24,19,,,,,,2.0,1.2,1.6*33
$GPRMC,030901.000,A,3402.3195,N,11829.3346,W,21.03,136.36,060516,,,A*48
$GPGGA,030902.000,3402.3153,N,11829.3298,W,1,07,1.2,81.3,M,-33.9,M,,0000*5E
$GPGSA,M,3,12,02,25,05,06,24,19,,,,,,2.0,1.2,1.6*33
$GPGSV,3,1,11,12,89,136,42,02,66,034,31,25,50,315,39,05,38,144,41*79
$GPGSV,3,2,11,06,20,045,36,24,19,207,38,19,13,079,30,20,11,187,29*78
$GPGSV,3,3,11,29,27,292,33,51,48,160,38,31,02,326,*4D
$GPRMC,030902.000,A,3402.3153,N,11829.3298,W,20.99,135.44,060516,,,A*47
$GPGGA,030903.000,3402.3110,N,11829.3250,W,1,07,1.2,81.0,M,-33.9,M,,0000*5F
$GPGSA,M,3,12,02,25,05,06,24,19,,,,,,2.0,1.2,1.6*33
$GPRMC,030903.000,A,3402.3110,N,11829.3250,W,20.95,137.49,060516,,,A*46
$GPGGA,030904.000,3402.3068,N,11829.3202,W,1,07,1.2,80.7,M,-33.9,M,,0000*57
$GPGSA,M,3,12,02,25,05,06,24,19,,,,,,2.0,1.2,1.6*33
$GPRMC,030904.000,A,3402.3068,N,11829.3202,W,20.86,137.09,060516,,,A*4E
$GPGGA,030905.000,3402.3024,N,11829.3156,W,1,07,1.2,80.7,M,-33.9,M,,0000*5C
$GPGSA,M,3,12,02,25,05,06,24,19,,,,,,2.0,1.2,1.6*33
$GPRMC,030905.000,A,3402.3024,N,11829.3156,W,20.68,137.08,060516,,,A*44
$GPGGA,030906.000,3402.2982,N,11829.3110,W,1,07,1.2,80.6,M,-33.9,M,,0000*58
$GPGSA,M,3,12,02,25,05,06,24,19,,,,,,2.0,1.2,1.6*33
$GPRMC,030906.000,A,3402.2982,N,11829.3110,W,20.27,136.16,060516,,,A*44
$GPGGA,030907.000,3402.2943,N,11829.3063,W,1,07,1.2,80.3,M,-33.9,M,,0000*54
$GPGSA,M,3,12,02,25,05,06,24,19,,,,,,2.0,1.2,1.6*33
$GPGSV,3,1,11,12,89,136,42,02,66,034,29,25,50,315,38,05,38,144,41*71
$GPGSV,3,2,11,06,20,045,30,24,19,207,38,19,13,079,28,20,11,187,30*7F
$GPGSV,3,3,11,29,27,292,28,51,48,160,38,31,02,326,*47
$GPRMC,030907.000,A,3402.2943,N,11829.3063,W,19.41,135.95,060516,,,A*4F
$GPGGA,030908.000,3402.2905,N,11829.3020,W,1,07,1.2,79.9,M,-33.9,M,,0000*52
$GPGSA,M,3,12,02,25,05,06,24,19,,,,,,2.0,1.2,1.6*33
$GPRMC,030908.000,A,3402.2905,N,11829.3020,W,18.49,137.44,060516,,,A*42
$GPGGA,030909.000,3402.2869,N,11829.2981,W,1,07,1.2,79.5,M,-33.9,M,,0000*57
$GPGSA,M,3,12,02,25,05,06,24,19,,,,,,2.0,1.2,1.6*33
$GPRMC,030909.000,A,3402.2869,N,11829.2981,W,16.42,139.00,060516,,,A*40
$GPGGA,030910.000,3402.2838,N,11829.2950,W,1,07,1.2,79.0,M,-33.9,M,,0000*52
$GPGSA,M,3,12,02,25,05,06,24,19,,,,,,2.0,1.2,1.6*33
$GPRMC,030910.000,A,3402.2838,N,11829.2950,W,13.67,140.86,060516,,,A*42
$GPGGA,030911.000,3402.2814,N,11829.2924,W,1,07,1.2,78.1,M,-33.9,M,,0000*5E
$GPGSA,M,3,12,02,25,05,06,24,19,,,,,,2.0,1.2,1.6*33
$GPRMC,030911.000,A,3402.2814,N,11829.2924,W,10.42,138.81,060516,,,A*42
$GPGGA,030912.000,3402.2798,N,11829.2906,W,1,07,1.2,77.6,M,-33.9,M,,0000*5E
$GPGSA,M,3,12,02,25,05,06,24,19,,,,,,2.0,1.2,1.6*33
$GPGSV,3,1,11,12,89,136,42,02,66,034,36,25,50,315,37,05,38,144,43*72
$GPGSV,3,2,11,06,20,045,33,24,19,207,36,19,13,079,39,20,11,187,37*75
$GPGSV,3,3,11,29,27,292,28,51,48,160,39,31,02,326,*46
$GPRMC,030912.000,A,3402.2798,N,11829.2906,W,6.26,141.21,060516,,,A*7B
$GPGGA,030913.000,3402.2788,N,11829.2897,W,1,07,1.2,77.1,M,-33.9,M,,0000*50
$GPGSA,M,3,12,02,25,05,06,24,19,,,,,,2.0,1.2,1.6*33
$GPRMC,030913.000,A,3402.2788,N,11829.2897,W,4.58,144.91,060516,,,A*77
$GPGGA,030914.000,3402.2776,N,11829.2890,W,1,07,1.2,76.7,M,-33.9,M,,0000*56
$GPGSA,M,3,12,02,25,05,06,24,19,,,,,,2.0,1.2,1.6*33
$GPRMC,030914.000,A,3402.2776,N,11829.2890,W,5.68,158.24,060516,,,A*77
$GPGGA,030915.000,3402.2760,N,11829.2890,W,1,07,1.2,76.6,M,-33.9,M,,0000*51
$GPGSA,M,3,12,02,25,05,06,24,19,,,,,,2.0,1.2,1.6*33
$GPRMC,030915.000,A,3402.2760,N,11829.2890,W,6.76,178.29,060516,,,A*72
$GPGGA,030916.000,3402.2740,N,11829.2899,W,1,07,1.2,76.5,M,-33.9,M,,0000*5A
$GPGSA,M,3,12,02,25,05,06,24,19,,,,,,2.0,1.2,1.6*33
$GPRMC,030916.000,A,3402.2740,N,11829.2899,W,8.21,197.91,060516,,,A*74
$GPGGA,030917.000,3402.2718,N,11829.2919,W,1,07,1.2,76.5,M,-33.9,M,,0000*5F
$GPGSA,M,3,12,02,25,05,06,24,19,,,,,,2.0,1.2,1.6*33
$GPGSV,3,1,11,12,89,136,43,02,66,034,34,25,50,315,38,05,38,144,43*7E
$GPGSV,3,2,11,06,20,045,33,24,19,207,39,19,13,079,33,20,11,187,37*70
$GPGSV,3,3,11,29,27,292,39,51,48,160,41,31,02,326,*49
$GPRMC,030917.000,A,3402.2718,N,11829.2919,W,10.02,218.03,060516,,,A*46
$GPGGA,030918.000,3402.2697,N,11829.2949,W,1,07,1.2,76.3,M,-33.9,M,,0000*55
$GPGSA,M,3,12,02,25,05,06,24,19,,,,,,2.0,1.2,1.6*33
$GPRMC,030918.000,A,3402.2697,N,11829.2949,W,12.01,224.78,060516,,,A*48
$GPGGA,030919.000,3402.2672,N,11829.2985,W,1,07,1.2,76.2,M,-33.9,M,,0000*5E
$GPGSA,M,3,12,02,25,05,06,24,19,,,,,,2.0,1.2,1.6*33
$GPRMC,030919.000,A,3402.2672,N,11829.2985,W,13.84,226.48,060516,,,A*4F
$GPGGA,030920.000,3402.2645,N,11829.3023,W,2,06,1.3,75.9,M,-33.9,M,,0000*5F
$GPGSA,M,3,12,02,25,05,06,24,,,,,,,2.1,1.3,1.7*3A
$GPRMC,030920.000,A,3402.2645,N,11829.3023,W,15.52,226.56,060516,,,D*42
$GPGGA,030921.000,3402.2616,N,11829.3064,W,2,06,1.3,75.6,M,-33.9,M,4.0,0000*7E
$GPGSA,M,3,12,02,25,05,06,24,,,,,,,2.1,1.3,1.7*3A
$GPRMC,030921.000,A,3402.2616,N,11829.3064,W,16.47,226.87,060516,,,D*4D
$GPGGA,030922.000,3402.2585,N,11829.3107,W,2,06,1.3,75.4,M,-33.9,M,5.0,0000*73
$GPGSA,M,3,12,02,25,05,06,24,,,,,,,2.1,1.3,1.7*3A
$GPGSV,3,1,11,12,89,136,43,02,66,034,35,25,50,315,45,05,38,144,45*73
$GPGSV,3,2,11,06,20,045,34,24,19,207,39,19,13,079,28,20,11,187,31*7B
$GPGSV,3,3,11,29,27,292,42,51,48,160,42,31,02,326,*46
$GPRMC,030922.000,A,3402.2585,N,11829.3107,W,16.91,227.26,060516,,,D*42
$GPGGA,030923.000,3402.2553,N,11829.3150,W,2,06,1.3,75.2,M,-33.9,M,6.0,0000*7E
$GPGSA,M,3,12,02,25,05,06,24,,,,,,,2.1,1.3,1.7*3A
$GPRMC,030923.000,A,3402.2553,N,11829.3150,W,16.87,227.40,060516,,,D*4D
$GPGGA,030924.000,3402.2521,N,11829.3193,W,2,06,1.3,75.0,M,-33.9,M,,0000*59
$GPGSA,M,3,12,02,25,05,06,24,,,,,,,2.1,1.3,1.7*3A
$GPRMC,030924.000,A,3402.2521,N,11829.3193,W,17.13,226.78,060516,,,D*46
$GPGGA,030925.000,3402.2488,N,11829.3237,W,2,06,1.3,74.9,M,-33.9,M,,0000*5F
$GPGSA,M,3,12,02,25,05,06,24,,,,,,,2.1,1.3,1.7*3A
$GPRMC,030925.000,A,3402.2488,N,11829.3237,W,18.10,225.68,060516,,,D*46
$GPGGA,030926.000,3402.2451,N,11829.3282,W,2,06,1.3,74.7,M,-33.9,M,,0000*58
$GPGSA,M,3,12,02,25,05,06,24,,,,,,,2.1,1.3,1.7*3A
$GPRMC,030926.000,A,3402.2451,N,11829.3282,W,19.22,225.20,060516,,,D*43
$GPGGA,030927.000,3402.2413,N,11829.3330,W,2,07,1.2,74.6,M,-33.9,M,4.0,0000*7C
$GPGSA,M,3,12,02,25,05,06,24,51,,,,,,2.0,1.2,1.6*3F
$GPGSV,3,1,11,12,89,136,44,02,66,034,35,25,50,315,45,05,38,144,45*74
$GPGSV,3,2,11,06,20,045,35,24,19,207,40,51,48,160,44,19,13,079,27*7A
$GPGSV,3,3,11,29,27,292,40,20,11,187,,31,02,326,*41
$GPRMC,030927.000,A,3402.2413,N,11829.3330,W,20.33,225.14,060516,,,D*41
$GPGGA,030928.000,3402.2372,N,11829.3380,W,2,07,1.2,74.5,M,-33.9,M,5.0,0000*7A
$GPGSA,M,3,12,02,25,05,06,24,51,,,,,,2.0,1.2,1.6*3F
$GPRMC,030928.000,A,3402.2372,N,11829.3380,W,21.05,225.42,060516,,,D*42
$GPGGA,030929.000,3402.2331,N,11829.3431,W,2,07,1.2,74.3,M,-33.9,M,,0000*5C
$GPGSA,M,3,12,02,25,05,06,24,51,,,,,,2.0,1.2,1.6*3F
$GPRMC,030929.000,A,3402.2331,N,11829.3431,W,21.05,225.53,060516,,,D*49
$GPGGA,030930.000,3402.2290,N,11829.3482,W,2,07,1.2,74.2,M,-33.9,M,,0000*57
$GPGSA,M,3,12,02,25,05,06,24,51,,,,,,2.0,1.2,1.6*3F
$GPRMC,030930.000,A,3402.2290,N,11829.3482,W,20.86,225.99,060516,,,D*4F
$GPGGA,030931.000,3402.2250,N,11829.3533,W,2,07,1.2,74.1,M,-33.9,M,,0000*52
$GPGSA,M,3,12,02,25,05,06,24,51,,,,,,2.0,1.2,1.6*3F
$GPRMC,030931.000,A,3402.2250,N,11829.3533,W,20.62,226.18,060516,,,D*49
$GPGGA,030932.000,3402.2211,N,11829.3584,W,2,07,1.2,74.0,M,-33.9,M,,0000*59
$GPGSA,M,3,12,02,25,05,06,24,51,,,,,,2.0,1.2,1.6*3F
$GPGSV,3,1,11,12,89,136,43,02,66,034,35,25,50,315,45,05,38,144,45*73
$GPGSV,3,2,11,06,20,045,35,24,19,207,40,51,48,160,43,19,13,079,22*78
$GPGSV,3,3,11,20,11,187,30,29,27,292,46,31,02,326,*44
$GPRMC,030932.000,A,3402.2211,N,11829.3584,W,20.56,226.15,060516,,,D*49
$GPGGA,030933.000,3402.2171,N,11829.3634,W,2,07,1.2,73.8,M,-33.9,M,,0000*5A
$GPGSA,M,3,12,02,25,05,06,24,51,,,,,,2.0,1.2,1.6*3F
$GPRMC,030933.000,A,3402.2171,N,11829.3634,W,20.81,225.95,060516,,,D*44
$GPGGA,030934.000,3402.2130,N,11829.3686,W,2,07,1.2,73.7,M,-33.9,M,4.0,0000*74
$GPGSA,M,3,12,02,25,05,06,24,51,,,,,,2.0,1.2,1.6*3F
$GPRMC,030934.000,A,3402.2130,N,11829.3686,W,21.61,226.16,060516,,,D*48
$GPGGA,030935.000,3402.2087,N,11829.3740,W,2,07,1.2,73.5,M,-33.9,M,5.0,0000*70
$GPGSA,M,3,12,02,25,05,06,24,51,,,,,,2.0,1.2,1.6*3F
$GPRMC,030935.000,A,3402.2087,N,11829.3740,W,22.57,226.24,060516,,,D*48
$GPGGA,030936.000,3402.2042,N,11829.3797,W,2,07,1.2,73.4,M,-33.9,M,,0000*5A
$GPGSA,M,3,12,02,25,05,06,24,51,,,,,,2.0,1.2,1.6*3F
$GPRMC,030936.000,A,3402.2042,N,11829.3797,W,23.57,226.30,060516,,,D*4C
$GPGGA,030937.000,3402.1996,N,11829.3856,W,2,07,1.2,73.3,M,-33.9,M,,0000*5D
$GPGSA,M,3,12,02,25,05,06,24,51,,,,,,2.0,1.2,1.6*3F
$GPGSV,3,1,11,12,89,136,44,02,66,034,35,25,50,315,44,05,38,144,46*76
$GPGSV,3,2,11,06,20,045,35,24,19,207,40,51,48,160,44,19,13,079,28*75
$GPGSV,3,3,11,20,11,187,33,29,27,292,33,31,02,326,*45
$GPRMC,030937.000,A,3402.1996,N,11829.3856,W,24.43,225.76,060516,,,D*4F
$GPGGA,030938.000,3402.1947,N,11829.3915,W,2,07,1.2,73.3,M,-33.9,M,,0000*58
$GPGSA,M,3,12,02,25,05,06,24,51,,,,,,2.0,1.2,1.6*3F
$GPRMC,030938.000,A,3402.1947,N,11829.3915,W,25.27,225.16,060516,,,D*4F
$GPGGA,030939.000,3402.1896,N,11829.3977,W,2,07,1.2,73.2,M,-33.9,M,4.0,0000*7B
$GPGSA,M,3,12,02,25,05,06,24,51,,,,,,2.0,1.2,1.6*3F
$GPRMC,030939.000,A,3402.1896,N,11829.3977,W,26.26,225.22,060516,,,D*42
$GPGGA,030940.000,3402.1843,N,11829.4042,W,2,07,1.2,73.1,M,-33.9,M,5.0,0000*77
$GPGSA,M,3,12,02,25,05,06,24,51,,,,,,2.0,1.2,1.6*3F
$GPRMC,030940.000,A,3402.1843,N,11829.4042,W,27.21,225.83,060516,,,D*41
$GPGGA,030941.000,3402.1789,N,11829.4109,W,2,07,1.2,73.1,M,-33.9,M,6.0,0000*72
$GPGSA,M,3,12,02,25,05,06,24,51,,,,,,2.0,1.2,1.6*3F
$GPRMC,030941.000,A,3402.1789,N,11829.4109,W,28.09,226.21,060516,,,D*49
$GPGGA,030942.000,3402.1733,N,11829.4177,W,2,07,1.2,72.9,M,-33.9,M,,0000*58
$GPGSA,M,3,12,02,25,05,06,24,51,,,,,,2.0,1.2,1.6*3F
$GPGSV,3,1,11,12,89,136,43,02,66,034,34,25,50,315,42,05,38,144,43*73
$GPGSV,3,2,11,06,20,045,28,24,19,207,40,51,48,160,43,19,13,079,25*73
$GPGSV,3,3,11,20,11,187,28,29,27,292,44,31,02,326,*4F
$GPRMC,030942.000,A,3402.1733,N,11829.4177,W,28.91,226.59,060516,,,D*4C
$GPGGA,030943.000,3402.1676,N,11829.4247,W,2,07,1.2,72.9,M,-33.9,M,,0000*59
$GPGSA,M,3,12,02,25,05,06,24,51,,,,,,2.0,1.2,1.6*3F
$GPRMC,030943.000,A,3402.1676,N,11829.4247,W,29.75,225.92,060516,,,D*42
$GPGGA,030944.000,3402.1617,N,11829.4320,W,2,07,1.2,72.8,M,-33.9,M,,0000*58
$GPGSA,M,3,12,02,25,05,06,24,51,,,,,,2.0,1.2,1.6*3F
$GPRMC,030944.000,A,3402.1617,N,11829.4320,W,30.27,225.98,060516,,,D*47
$GPGGA,030945.000,3402.1557,N,11829.4394,W,2,07,1.2,72.7,M,-33.9,M,4.0,0000*74
$GPGSA,M,3,12,02,25,05,06,24,51,,,,,,2.0,1.2,1.6*3F
$GPRMC,030945.000,A,3402.1557,N,11829.4394,W,30.95,225.87,060516,,,D*49
$GPGGA,030946.000,3402.1496,N,11829.4469,W,2,07,1.2,72.7,M,-33.9,M,5.0,0000*7F
$GPGSA,M,3,12,02,25,05,06,24,51,,,,,,2.0,1.2,1.6*3F
$GPRMC,030946.000,A,3402.1496,N,11829.4469,W,31.48,225.99,060516,,,D*4D
$GPGGA,030947.000,3402.1434,N,11829.4546,W,2,07,1.2,72.5,M,-33.9,M,6.0,0000*7B
$GPGSA,M,3,12,02,25,05,06,24,51,,,,,,2.0,1.2,1.6*3F
$GPGSV,3,1,11,12,89,136,43,02,66,034,34,25,50,315,44,05,38,144,44*72
$GPGSV,3,2,11,06,20,045,32,24,19,207,40,51,48,160,43,19,13,079,25*78
$GPGSV,3,3,11,20,11,187,33,29,27,292,40,31,02,326,*41
$GPRMC,030947.000,A,3402.1434,N,11829.4546,W,31.82,225.84,060516,,,D*42
$GPGGA,030948.000,3402.1371,N,11829.4624,W,2,07,1.2,72.4,M,-33.9,M,,0000*5C
$GPGSA,M,3,12,02,25,05,06,24,51,,,,,,2.0,1.2,1.6*3F
$GPRMC,030948.000,A,3402.1371,N,11829.4624,W,32.23,225.87,060516,,,D*47
$GPGGA,030949.000,3402.1308,N,11829.4702,W,2,07,1.2,72.2,M,-33.9,M,,0000*50
$GPGSA,M,3,12,02,25,05,06,24,51,,,,,,2.0,1.2,1.6*3F
$GPRMC,030949.000,A,3402.1308,N,11829.4702,W,32.58,226.05,060516,,,D*48
$GPGGA,030950.000,3402.1244,N,11829.4781,W,2,07,1.2,72.1,M,-33.9,M,,0000*59
$GPGSA,M,3,12,02,25,05,06,24,51,,,,,,2.0,1.2,1.6*3F
$GPRMC,030950.000,A,3402.1244,N,11829.4781,W,32.69,226.02,060516,,,D*47
$GPGGA,030951.000,3402.1181,N,11829.4859,W,2,07,1.2,72.0,M,-33.9,M,4.0,0000*73
$GPGSA,M,3,12,02,25,05,06,24,51,,,,,,2.0,1.2,1.6*3F
$GPRMC,030951.000,A,3402.1181,N,11829.4859,W,32.48,226.13,060516,,,D*45
$GPGGA,030952.000,3402.1118,N,11829.4938,W,2,07,1.2,71.9,M,-33.9,M,5.0,0000*7D
$GPGSA,M,3,12,02,25,05,06,24,51,,,,,,2.0,1.2,1.6*3F
$GPGSV,3,1,11,12,89,136,44,02,66,034,34,25,50,315,45,05,38,144,45*75
$GPGSV,3,2,11,06,20,045,34,24,19,207,40,51,48,160,43,19,13,079,23*78
$GPGSV,3,3,11,20,11,187,22,29,27,292,44,31,02,326,*45
$GPRMC,030952.000,A,3402.1118,N,11829.4938,W,32.18,226.01,060516,,,D*46
$GPGGA,030953.000,3402.1055,N,11829.5015,W,2,07,1.2,71.7,M,-33.9,M,6.0,0000*7E
$GPGSA,M,3,12,02,25,05,06,24,51,,,,,,2.0,1.2,1.6*3F
$GPRMC,030953.000,A,3402.1055,N,11829.5015,W,31.82,225.70,060516,,,D*4D
$GPGGA,030954.000,3402.0994,N,11829.5090,W,2,07,1.2,71.6,M,-33.9,M,,0000*58
$GPGSA,M,3,12,02,25,05,06,24,51,,,,,,2.0,1.2,1.6*3F
$GPRMC,030954.000,A,3402.0994,N,11829.5090,W,30.90,225.78,060516,,,D*48
$GPGGA,030955.000,3402.0935,N,11829.5161,W,2,07,1.2,71.5,M,-33.9,M,,0000*5E
$GPGSA,M,3,12,02,25,05,06,24,51,,,,,,2.0,1.2,1.6*3F
$GPRMC,030955.000,A,3402.0935,N,11829.5161,W,29.12,224.36,060516,,,D*44
$GPGGA,030956.000,3402.0882,N,11829.5229,W,2,07,1.2,71.2,M,-33.9,M,,0000*58
$GPGSA,M,3,12,02,25,05,06,24,51,,,,,,2.0,1.2,1.6*3F
$GPRMC,030956.000,A,3402.0882,N,11829.5229,W,26.64,227.48,060516,,,D*41
$GPGGA,030957.000,3402.0836,N,11829.5292,W,2,07,1.2,71.0,M,-33.9,M,4.0,0000*7E
$GPGSA,M,3,12,02,25,05,06,24,51,,,,,,2.0,1.2,1.6*3F
$GPGSV,3,1,11,12,89,136,43,02,66,034,34,25,50,315,34,05,38,144,45*74
$GPGSV,3,2,11,06,20,045,34,24,19,207,40,51,48,160,42,19,13,079,24*7E
$GPGSV,3,3,11,20,11,187,32,29,27,292,31,31,02,326,*46
$GPRMC,030957.000,A,3402.0836,N,11829.5292,W,23.50,229.64,060516,,,D*4D
$GPGGA,030958.000,3402.0797,N,11829.5349,W,2,07,1.2,70.9,M,-33.9,M,,0000*50
$GPGSA,M,3,12,02,25,05,06,24,51,,,,,,2.0,1.2,1.6*3F
$GPRMC,030958.000,A,3402.0797,N,11829.5349,W,20.89,231.90,060516,,,D*44
$GPGGA,030959.000,3402.0767,N,11829.5397,W,2,07,1.2,70.9,M,-33.9,M,4.0,0000*77
$GPGSA,M,3,12,02,25,05,06,24,51,,,,,,2.0,1.2,1.6*3F
$GPRMC,030959.000,A,3402.0767,N,11829.5397,W,17.14,233.37,060516,,,D*46
$GPGGA,031000.000,3402.0751,N,11829.5431,W,2,07,1.2,70.8,M,-33.9,M,,0000*56
$GPGSA,M,3,12,02,25,05,06,24,51,,,,,,2.0,1.2,1.6*3F
$GPRMC,031000.000,A,3402.0751,N,11829.5431,W,12.46,238.67,060516,,,D*40
$GPGGA,031001.000,3402.0749,N,11829.5459,W,2,07,1.2,70.5,M,-33.9,M,,0000*5D
$GPGSA,M,3,12,02,25,05,06,24,51,,,,,,2.0,1.2,1.6*3F
$GPRMC,031001.000,A,3402.0749,N,11829.5459,W,8.60,262.92,060516,,,D*7C
$GPGGA,031002.000,3402.0755,N,11829.5483,W,2,07,1.2,70.2,M,-33.9,M,,0000*53
$GPGSA,M,3,12,02,25,05,06,24,51,,,,,,2.0,1.2,1.6*3F
$GPGSV,3,1,11,12,89,136,43,02,66,034,36,25,50,315,45,05,38,144,39*7B
$GPGSV,3,2,11,06,20,045,24,24,19,207,35,51,48,160,42,19,13,079,30*78
$GPGSV,3,3,11,20,11,187,30,29,27,292,38,31,02,326,*4D
$GPRMC,031002.000,A,3402.0755,N,11829.5483,W,7.02,279.89,060516,,,D*7E
$GPGGA,031003.000,3402.0767,N,11829.5500,W,2,07,1.2,70.2,M,-33.9,M,,0000*59
$GPGSA,M,3,12,02,25,05,06,24,51,,,,,,2.0,1.2,1.6*3F
$GPRMC,031003.000,A,3402.0767,N,11829.5500,W,7.01,302.26,060516,,,D*7F
$GPGGA,031004.000,3402.0782,N,11829.5520,W,2,07,1.2,70.1,M,-33.9,M,,0000*54
$GPGSA,M,3,12,02,25,05,06,24,51,,,,,,2.0,1.2,1.6*3F
$GPRMC,031004.000,A,3402.0782,N,11829.5520,W,9.04,308.99,060516,,,D*74
$GPGGA,031005.000,3402.0802,N,11829.5546,W,2,07,1.2,70.1,M,-33.9,M,4.0,0000*78
$GPGSA,M,3,12,02,25,05,06,24,51,,,,,,2.0,1.2,1.6*3F
$GPRMC,031005.000,A,3402.0802,N,11829.5546,W,12.04,312.32,060516,,,D*42
$GPGGA,031006.000,3402.0828,N,11829.5580,W,2,07,1.2,70.2,M,-33.9,M,5.0,0000*7B
$GPGSA,M,3,12,02,25,05,06,24,51,,,,,,2.0,1.2,1.6*3F
$GPRMC,031006.000,A,3402.0828,N,11829.5580,W,14.95,316.12,060516,,,D*4B
$GPGGA,031007.000,3402.0862,N,11829.5616,W,2,07,1.2,70.2,M,-33.9,M,6.0,0000*7B
$GPGSA,M,3,12,02,25,05,06,24,51,,,,,,2.0,1.2,1.6*3F
$GPGSV,3,1,11,12,88,149,43,02,65,034,38,25,51,315,40,05,39,144,39*7A
$GPGSV,3,2,11,06,19,045,30,24,19,207,34,51,48,160,35,19,13,079,28*7F
$GPGSV,3,3,11,20,11,187,20,29,27,292,40,31,02,325,*40
$GPRMC,031007.000,A,3402.0862,N,11829.5616,W,17.35,317.86,060516,,,D*4D
$GPGGA,031008.000,3402.0901,N,11829.5656,W,2,07,1.2,70.3,M,-33.9,M,7.0,0000*74
$GPGSA,M,3,12,02,25,05,06,24,51,,,,,,2.0,1.2,1.6*3F
$GPRMC,031008.000,A,3402.0901,N,11829.5656,W,19.11,317.23,060516,,,D*45
$GPGGA,031009.000,3402.0941,N,11829.5700,W,2,07,1.2,70.5,M,-33.9,M,8.0,0000*7A
$GPGSA,M,3,12,02,25,05,06,24,51,,,,,,2.0,1.2,1.6*3F
$GPRMC,031009.000,A,3402.0941,N,11829.5700,W,18.74,316.49,060516,,,D*4D
$GPGGA,031010.000,3402.0979,N,11829.5739,W,2,07,1.2,71.0,M,-33.9,M,9.0,0000*76
$GPGSA,M,3,12,02,25,05,06,24,51,,,,,,2.0,1.2,1.6*3F
$GPRMC,031010.000,A,3402.0979,N,11829.5739,W,17.00,317.56,060516,,,D*47
$GPGGA,031011.000,3402.1013,N,11829.5772,W,2,07,1.2,71.4,M,-33.9,M,10.0,0000*40
$GPGSA,M,3,12,02,25,05,06,24,51,,,,,,2.0,1.2,1.6*3F
$GPRMC,031011.000,A,3402.1013,N,11829.5772,W,14.51,320.73,060516,,,D*49
$GPGGA,031012.000,3402.1044,N,11829.5801,W,2,06,1.3,71.8,M,-33.9,M,11.0,0000*47
$GPGSA,M,3,12,02,25,05,06,24,,,,,,,2.1,1.3,1.7*3A
$GPGSV,3,1,11,12,88,149,43,02,65,034,39,25,51,315,39,05,39,144,41*7A
$GPGSV,3,2,11,06,19,045,32,24,19,207,33,19,13,079,37,20,11,187,23*70
$GPGSV,3,3,11,29,27,292,37,46,44,145,42,31,02,325,*4A
$GPRMC,031012.000,A,3402.1044,N,11829.5801,W,13.63,323.20,060516,,,D*40
$GPGGA,031013.000,3402.1073,N,11829.5831,W,2,06,1.3,72.1,M,-33.9,M,12.0,0000*48
$GPGSA,M,3,12,02,25,05,06,24,,,,,,,2.1,1.3,1.7*3A
$GPRMC,031013.000,A,3402.1073,N,11829.5831,W,13.69,316.78,060516,,,D*47
$GPGGA,031014.000,3402.1099,N,11829.5867,W,2,06,1.3,72.5,M,-33.9,M,13.0,0000*4D
$GPGSA,M,3,12,02,25,05,06,24,,,,,,,2.1,1.3,1.7*3A
$GPRMC,031014.000,A,3402.1099,N,11829.5867,W,14.54,312.24,060516,,,D*43
$GPGGA,031015.000,3402.1128,N,11829.5906,W,2,06,1.3,72.8,M,-33.9,M,14.0,0000*4B
$GPGSA,M,3,12,02,25,05,06,24,,,,,,,2.1,1.3,1.7*3A
$GPRMC,031015.000,A,3402.1128,N,11829.5906,W,16.07,312.33,060516,,,D*4D
$GPGGA,031016.000,3402.1159,N,11829.5947,W,2,06,1.3,73.2,M,-33.9,M,15.0,0000*41
$GPGSA,M,3,12,02,25,05,06,24,,,,,,,2.1,1.3,1.7*3A
$GPRMC,031016.000,A,3402.1159,N,11829.5947,W,17.55,313.28,060516,,,D*40
$GPGGA,031017.000,3402.1195,N,11829.5991,W,2,06,1.3,73.7,M,-33.9,M,,0000*54
$GPGSA,M,3,12,02,25,05,06,24,,,,,,,2.1,1.3,1.7*3A
$GPGSV,3,1,11,12,88,149,44,02,65,034,38,25,51,315,39,05,39,144,40*7D
$GPGSV,3,2,11,06,19,045,38,24,19,207,28,19,13,079,28,20,11,187,22*7F
$GPGSV,3,3,11,29,27,292,39,46,44,145,38,31,02,325,*49
$GPRMC,031017.000,A,3402.1195,N,11829.5991,W,18.95,314.77,060516,,,D*44
$GPGGA,031018.000,3402.1234,N,11829.6036,W,2,06,1.3,74.0,M,-33.9,M,,0000*54
$GPGSA,M,3,12,02,25,05,06,24,,,,,,,2.1,1.3,1.7*3A
$GPRMC,031018.000,A,3402.1234,N,11829.6036,W,19.76,315.16,060516,,,D*4E
$GPGGA,031019.000,3402.1273,N,11829.6082,W,2,06,1.3,74.4,M,-33.9,M,3.0,0000*70
$GPGSA,M,3,12,02,25,05,06,24,,,,,,,2.1,1.3,1.7*3A
$GPRMC,031019.000,A,3402.1273,N,11829.6082,W,19.28,316.08,060516,,,D*44
$GPGGA,031020.000,3402.1312,N,11829.6125,W,2,06,1.3,74.6,M,-33.9,M,,0000*5F
$GPGSA,M,3,12,02,25,05,06,24,,,,,,,2.1,1.3,1.7*3A
$GPRMC,031020.000,A,3402.1312,N,11829.6125,W,18.46,316.70,060516,,,D*42
$GPGGA,031021.000,3402.1348,N,11829.6162,W,2,06,1.3,74.9,M,-33.9,M,,0000*5D
$GPGSA,M,3,12,02,25,05,06,24,,,,,,,2.1,1.3,1.7*3A
$GPRMC,031021.000,A,3402.1348,N,11829.6162,W,15.97,316.21,060516,,,D*4A
$GPGGA,031022.000,3402.1377,N,11829.6191,W,2,06,1.3,75.0,M,-33.9,M,3.0,0000*7B
$GPGSA,M,3,12,02,25,05,06,24,,,,,,,2.1,1.3,1.7*3A
$GPGSV,3,1,11,12,88,149,44,02,65,034,37,25,51,315,38,05,39,144,41*72
$GPGSV,3,2,11,06,19,045,29,24,19,207,29,19,13,079,27,20,11,187,23*70
$GPGSV,3,3,11,29,27,292,36,46,44,145,39,31,02,325,*47
$GPRMC,031022.000,A,3402.1377,N,11829.6191,W,11.63,316.41,060516,,,D*40
$GPGGA,031023.000,3402.1396,N,11829.6211,W,2,06,1.3,75.1,M,-33.9,M,,0000*52
$GPGSA,M,3,12,02,25,05,06,24,,,,,,,2.1,1.3,1.7*3A
$GPRMC,031023.000,A,3402.1396,N,11829.6211,W,6.88,314.60,060516,,,D*77
$GPGGA,031024.000,3402.1408,N,11829.6223,W,2,06,1.3,75.2,M,-33.9,M,,0000*57
$GPGSA,M,3,12,02,25,05,06,24,,,,,,,2.1,1.3,1.7*3A
$GPRMC,031024.000,A,3402.1408,N,11829.6223,W,5.39,316.23,060516,,,D*7D
$GPGGA,031025.000,3402.1420,N,11829.6237,W,2,06,1.3,75.2,M,-33.9,M,,0000*59
$GPGSA,M,3,12,02,25,05,06,24,,,,,,,2.1,1.3,1.7*3A
$GPRMC,031025.000,A,3402.1420,N,11829.6237,W,7.02,314.50,060516,,,D*7F
$GPGGA,031026.000,3402.1434,N,11829.6255,W,2,06,1.3,75.3,M,-33.9,M,,0000*5A
$GPGSA,M,3,12,02,25,05,06,24,,,,,,,2.1,1.3,1.7*3A
$GPRMC,031026.000,A,3402.1434,N,11829.6255,W,8.33,311.16,060516,,,D*77
$GPGGA,031027.000,3402.1449,N,11829.6276,W,2,06,1.3,75.4,M,-33.9,M,3.0,0000*7A
$GPGSA,M,3,12,02,25,05,06,24,,,,,,,2.1,1.3,1.7*3A
$GPGSV,3,1,11,12,88,149,44,02,65,034,28,25,51,315,39,05,39,144,40*7C
$GPGSV,3,2,11,06,19,045,33,24,19,207,27,19,13,079,28,20,11,187,30*78
$GPGSV,3,3,11,29,27,292,39,46,44,145,37,31,02,325,*46
$GPRMC,031027.000,A,3402.1449,N,11829.6276,W,8.71,311.53,060516,,,D*7A
$GPGGA,031028.000,3402.1468,N,11829.6300,W,2,07,1.1,75.1,M,-33.9,M,4.0,0000*77
$GPGSA,M,3,12,02,25,05,06,24,29,,,,,,1.9,1.1,1.5*3A
$GPRMC,031028.000,A,3402.1468,N,11829.6300,W,10.34,317.47,060516,,,D*4D
$GPGGA,031029.000,3402.1492,N,11829.6326,W,2,07,1.1,74.9,M,-33.9,M,5.0,0000*7F
$GPGSA,M,3,12,02,25,05,29,06,24,,,,,,1.9,1.1,1.5*3A
$GPRMC,031029.000,A,3402.1492,N,11829.6326,W,12.41,319.49,060516,,,D*4D
$GPGGA,031030.000,3402.1520,N,11829.6358,W,2,07,1.1,74.8,M,-33.9,M,,0000*5C
$GPGSA,M,3,12,02,25,05,29,06,24,,,,,,1.9,1.1,1.5*3A
$GPRMC,031030.000,A,3402.1520,N,11829.6358,W,14.85,316.03,060516,,,D*4B
$GPGGA,031031.000,3402.1551,N,11829.6397,W,2,07,1.1,74.9,M,-33.9,M,,0000*59
$GPGSA,M,3,12,02,25,05,29,06,24,,,,,,1.9,1.1,1.5*3A
$GPRMC,031031.000,A,3402.1551,N,11829.6397,W,17.15,315.83,060516,,,D*4E
$GPGGA,031032.000,3402.1587,N,11829.6442,W,2,07,1.1,75.0,M,-33.9,M,,0000*56
$GPGSA,M,3,12,02,25,05,29,06,24,,,,,,1.9,1.1,1.5*3A
$GPGSV,3,1,11,12,88,151,44,02,65,034,39,25,51,315,39,05,39,144,42*77
$GPGSV,3,2,11,29,27,293,40,06,19,045,34,24,19,207,33,19,13,079,21*7E
$GPGSV,3,3,11,20,12,187,22,46,44,145,40,31,03,325,*45
$GPRMC,031032.000,A,3402.1587,N,11829.6442,W,19.25,315.80,060516,,,D*47
$GPGGA,031033.000,3402.1628,N,11829.6489,W,2,07,1.1,75.0,M,-33.9,M,,0000*56
$GPGSA,M,3,12,02,25,05,29,06,24,,,,,,1.9,1.1,1.5*3A
$GPRMC,031033.000,A,3402.1628,N,11829.6489,W,20.64,315.68,060516,,,D*4E
$GPGGA,031034.000,3402.1670,N,11829.6540,W,2,06,1.3,75.2,M,-33.9,M,,0000*59
$GPGSA,M,3,12,02,25,05,29,06,,,,,,,2.2,1.3,1.8*3B
$GPRMC,031034.000,A,3402.1670,N,11829.6540,W,21.76,315.53,060516,,,D*4A
$GPGGA,031035.000,3402.1715,N,11829.6592,W,2,06,1.3,75.5,M,-33.9,M,3.0,0000*7F
$GPGSA,M,3,12,02,25,05,29,06,,,,,,,2.2,1.3,1.8*3B
$GPRMC,031035.000,A,3402.1715,N,11829.6592,W,22.61,315.94,060516,,,D*48
$GPGGA,031036.000,3402.1760,N,11829.6645,W,2,07,1.1,75.9,M,-33.9,M,,0000*55
$GPGSA,M,3,12,02,25,05,29,06,24,,,,,,1.9,1.1,1.5*3A
$GPRMC,031036.000,A,3402.1760,N,11829.6645,W,22.53,317.04,060516,,,D*4A
$GPGGA,031037.000,3402.1806,N,11829.6697,W,2,07,1.1,76.1,M,-33.9,M,,0000*5F
$GPGSA,M,3,12,02,25,05,29,06,24,,,,,,1.9,1.1,1.5*3A
$GPGSV,3,1,11,12,88,152,44,02,65,034,35,25,51,315,38,05,39,144,42*79
$GPGSV,3,2,11,29,27,293,35,06,19,045,34,24,19,207,28,19,13,079,32*74
$GPGSV,3,3,11,20,12,187,20,46,44,145,40,31,03,325,*47
$GPRMC,031037.000,A,3402.1806,N,11829.6697,W,22.20,317.58,060516,,,D*46
$GPGGA,031038.000,3402.1851,N,11829.6747,W,2,07,1.1,76.4,M,-33.9,M,,0000*5B
$GPGSA,M,3,12,02,25,05,29,06,24,,,,,,1.9,1.1,1.5*3A
$GPRMC,031038.000,A,3402.1851,N,11829.6747,W,21.39,318.31,060516,,,D*4C
$GPGGA,031039.000,3402.1894,N,11829.6792,W,2,07,1.1,76.6,M,-33.9,M,3.0,0000*74
$GPGSA,M,3,12,02,25,05,29,06,24,,,,,,1.9,1.1,1.5*3A
$GPRMC,031039.000,A,3402.1894,N,11829.6792,W,19.58,320.18,060516,,,D*40
$GPGGA,031040.000,3402.1933,N,11829.6832,W,2,07,1.1,76.7,M,-33.9,M,4.0,0000*75
$GPGSA,M,3,12,02,25,05,29,06,24,,,,,,1.9,1.1,1.5*3A
$GPRMC,031040.000,A,3402.1933,N,11829.6832,W,16.81,319.60,060516,,,D*49
$GPGGA,031041.000,3402.1966,N,11829.6866,W,2,07,1.1,76.8,M,-33.9,M,5.0,0000*7B
$GPGSA,M,3,12,02,25,05,29,06,24,,,,,,1.9,1.1,1.5*3A
$GPRMC,031041.000,A,3402.1966,N,11829.6866,W,14.75,319.09,060516,,,D*4F
$GPGGA,031042.000,3402.1995,N,11829.6894,W,2,07,1.1,76.7,M,-33.9,M,,0000*5D
$GPGSA,M,3,12,02,25,05,29,06,24,,,,,,1.9,1.1,1.5*3A
$GPGSV,3,1,11,12,88,152,44,02,65,034,37,25,51,315,37,05,39,144,41*77
$GPGSV,3,2,11,29,27,293,36,06,19,045,30,24,19,207,26,19,13,079,33*7C
$GPGSV,3,3,11,20,12,187,22,46,44,145,39,31,03,325,*4B
$GPRMC,031042.000,A,3402.1995,N,11829.6894,W,12.21,319.52,060516,,,D*44
$GPGGA,031043.000,3402.2018,N,11829.6917,W,2,07,1.1,76.7,M,-33.9,M,,0000*59
$GPGSA,M,3,12,02,25,05,29,06,24,,,,,,1.9,1.1,1.5*3A
$GPRMC,031043.000,A,3402.2018,N,11829.6917,W,9.29,316.96,060516,,,D*75
$GPGGA,031044.000,3402.2034,N,11829.6937,W,2,07,1.1,77.0,M,-33.9,M,3.0,0000*79
$GPGSA,M,3,12,02,25,05,29,06,24,,,,,,1.9,1.1,1.5*3A
